{
  "features": [
    {
      "type": "Feature",
      "properties": {
        "Street Number": "",
        "Street Name": "Station",
        "Street Type": "ST",
        "Suburb": "NUNDAH",
        "Postcode": "4012",
        "State": "QLD",
        "Full Address": " Station ST NUNDAH 4012 QLD "
      },
      "geometry": {
        "coordinates": [
          153.060757,
          -27.401479
        ],
        "type": "Point"
      },
      "id": "00f2450ce6bf72f221f0a089d13a1bed"
    },
    {
      "type": "Feature",
      "properties": {
        "Street Number": "120",
        "Street Name": "GLENLYON",
        "Street Type": "ST",
        "Suburb": "GLADSTONE CENTRAL",
        "Postcode": "4680",
        "State": "QLD",
        "Full Address": "120 GLENLYON ST GLADSTONE CENTRAL 4680 QLD "
      },
      "geometry": {
        "coordinates": [
          151.257883,
          -23.849434
        ],
        "type": "Point"
      },
      "id": "019e843bec8f5e54418080e80565b2e5"
    },
    {
      "type": "Feature",
      "properties": {
        "Street Number": "51",
        "Street Name": "Parkview",
        "Street Type": "DR",
        "Suburb": "SPRINGFIELD LAKES",
        "Postcode": "4300",
        "State": "QLD",
        "Full Address": "51 Parkview DR SPRINGFIELD LAKES 4300 QLD "
      },
      "geometry": {
        "coordinates": [
          152.915834,
          -27.675249
        ],
        "type": "Point"
      },
      "id": "01e8c02d5b5c6cb35adfb6b6c6444839"
    },
    {
      "type": "Feature",
      "properties": {
        "Street Number": "",
        "Street Name": "IPSWICH",
        "Street Type": "MWY",
        "Suburb": "GAILES",
        "Postcode": "4300",
        "State": "QLD",
        "Full Address": " IPSWICH MWY GAILES 4300 QLD "
      },
      "geometry": {
        "coordinates": [
          152.911531,
          -27.607781
        ],
        "type": "Point"
      },
      "id": "022138253c89ec83ecc1a303d4bbfa80"
    },
    {
      "type": "Feature",
      "properties": {
        "Street Number": "",
        "Street Name": "Bruce",
        "Street Type": "HWY",
        "Suburb": "AYR",
        "Postcode": "4807",
        "State": "QLD",
        "Full Address": " Bruce HWY AYR 4807 QLD "
      },
      "geometry": {
        "coordinates": [
          147.398361,
          -19.584044
        ],
        "type": "Point"
      },
      "id": "0235b81ca1d6626429cc5fb78b77b4d1"
    },
    {
      "type": "Feature",
      "properties": {
        "Street Number": "",
        "Street Name": "NERANG BROADBEACH & PACIFIC ON",
        "Street Type": "RAMP",
        "Suburb": "NERANG",
        "Postcode": "4211",
        "State": "QLD",
        "Full Address": " NERANG BROADBEACH & PACIFIC ON RAMP NERANG 4211 QLD "
      },
      "geometry": {
        "coordinates": [
          153.351669,
          -27.997045
        ],
        "type": "Point"
      },
      "id": "024aad8af917ea033e3c3d89b49f3213"
    },
    {
      "type": "Feature",
      "properties": {
        "Street Number": "",
        "Street Name": "FOXWELL & AMITY",
        "Street Type": "RD",
        "Suburb": "COOMERA",
        "Postcode": "4209",
        "State": "QLD",
        "Full Address": " FOXWELL & AMITY RD COOMERA 4209 QLD "
      },
      "geometry": {
        "coordinates": [
          153.344038,
          -27.846409
        ],
        "type": "Point"
      },
      "id": "025ce504068d878c562d040914d3f88b"
    },
    {
      "type": "Feature",
      "properties": {
        "Street Number": "",
        "Street Name": "CAMPBELL & RUTHVEN",
        "Street Type": "ST",
        "Suburb": "TOOWOOMBA CITY",
        "Postcode": "4350",
        "State": "QLD",
        "Full Address": " CAMPBELL & RUTHVEN ST TOOWOOMBA CITY 4350 QLD "
      },
      "geometry": {
        "coordinates": [
          151.954198,
          -27.555454
        ],
        "type": "Point"
      },
      "id": "028c47801f05920090f17645119be1ba"
    },
    {
      "type": "Feature",
      "properties": {
        "Street Number": "20",
        "Street Name": "BADEN POWELL",
        "Street Type": "ST",
        "Suburb": "MAROOCHYDORE",
        "Postcode": "4558",
        "State": "QLD",
        "Full Address": "20 BADEN POWELL ST MAROOCHYDORE 4558 QLD "
      },
      "geometry": {
        "coordinates": [
          153.088184,
          -26.649645
        ],
        "type": "Point"
      },
      "id": "02fefb94bde861d5538b71d61a78958a"
    },
    {
      "type": "Feature",
      "properties": {
        "Street Number": "6266",
        "Street Name": "Toowoomba Karara",
        "Street Type": "RD",
        "Suburb": "LEYBURN",
        "Postcode": "4365",
        "State": "QLD",
        "Full Address": "6266 Toowoomba Karara RD LEYBURN 4365 QLD "
      },
      "geometry": {
        "coordinates": [
          151.567134,
          -28.042492
        ],
        "type": "Point"
      },
      "id": "0306757cc21ea569c4198ca596cf7d21"
    },
    {
      "type": "Feature",
      "properties": {
        "Street Number": "",
        "Street Name": "Albany Creek & Trouts",
        "Street Type": "RD",
        "Suburb": "ASPLEY",
        "Postcode": "4034",
        "State": "QLD",
        "Full Address": " Albany Creek & Trouts RD ASPLEY 4034 QLD "
      },
      "geometry": {
        "coordinates": [
          153.00443,
          -27.360238
        ],
        "type": "Point"
      },
      "id": "03a9d9544585783e2e9ea183fb2854ab"
    },
    {
      "type": "Feature",
      "properties": {
        "Street Number": "54",
        "Street Name": "John",
        "Street Type": "ST",
        "Suburb": "CABOOLTURE SOUTH",
        "Postcode": "4510",
        "State": "QLD",
        "Full Address": "54 John ST CABOOLTURE SOUTH 4510 QLD "
      },
      "geometry": {
        "coordinates": [
          152.946221,
          -27.094466
        ],
        "type": "Point"
      },
      "id": "03c6ca1bbc44fda5189ef521ab06bd23"
    },
    {
      "type": "Feature",
      "properties": {
        "Street Number": "274",
        "Street Name": "Beaudesert",
        "Street Type": "RD",
        "Suburb": "MOOROOKA",
        "Postcode": "4105",
        "State": "QLD",
        "Full Address": "274 Beaudesert RD MOOROOKA 4105 QLD "
      },
      "geometry": {
        "coordinates": [
          153.023986,
          -27.536082
        ],
        "type": "Point"
      },
      "id": "040dfaccf452bcc640e40aca0f9c9476"
    },
    {
      "type": "Feature",
      "properties": {
        "Street Number": "",
        "Street Name": "Yeppoon",
        "Street Type": "RD",
        "Suburb": "IRONPOT",
        "Postcode": "4701",
        "State": "QLD",
        "Full Address": " Yeppoon RD IRONPOT 4701 QLD "
      },
      "geometry": {
        "coordinates": [
          150.600802,
          -23.256014
        ],
        "type": "Point"
      },
      "id": "04144205489a029ccf2adc9068583895"
    },
    {
      "type": "Feature",
      "properties": {
        "Street Number": "1128",
        "Street Name": "Mount Dangar",
        "Street Type": "RD",
        "Suburb": "BOWEN",
        "Postcode": "4805",
        "State": "QLD",
        "Full Address": "1128 Mount Dangar RD BOWEN 4805 QLD "
      },
      "geometry": {
        "coordinates": [
          148.123514,
          -20.209167
        ],
        "type": "Point"
      },
      "id": "044bd905450f7a68867b543d36c23731"
    },
    {
      "type": "Feature",
      "properties": {
        "Street Number": "",
        "Street Name": "Philips",
        "Street Type": "RD",
        "Suburb": "PINE CREEK",
        "Postcode": "4670",
        "State": "QLD",
        "Full Address": " Philips RD PINE CREEK 4670 QLD "
      },
      "geometry": {
        "coordinates": [
          152.18515,
          -25.036781
        ],
        "type": "Point"
      },
      "id": "049da3b600f0606d3b02fa43a9116186"
    },
    {
      "type": "Feature",
      "properties": {
        "Street Number": "215",
        "Street Name": "HEIN",
        "Street Type": "RD",
        "Suburb": "BUCCAN",
        "Postcode": "4207",
        "State": "QLD",
        "Full Address": "215 HEIN RD BUCCAN 4207 QLD "
      },
      "geometry": {
        "coordinates": [
          153.144925,
          -27.742967
        ],
        "type": "Point"
      },
      "id": "04d721c7947c085350ed523b5c5caabd"
    },
    {
      "type": "Feature",
      "properties": {
        "Street Number": "18",
        "Street Name": "FRONT",
        "Street Type": "ST",
        "Suburb": "MOSSMAN",
        "Postcode": "4873",
        "State": "QLD",
        "Full Address": "18 FRONT ST MOSSMAN 4873 QLD "
      },
      "geometry": {
        "coordinates": [
          145.373942,
          -16.460465
        ],
        "type": "Point"
      },
      "id": "04ea546c53b325ea014f5ef609f22c3a"
    },
    {
      "type": "Feature",
      "properties": {
        "Street Number": "446",
        "Street Name": "MAIN",
        "Street Type": "ST",
        "Suburb": "KANGAROO POINT",
        "Postcode": "4169",
        "State": "QLD",
        "Full Address": "446 MAIN ST KANGAROO POINT 4169 QLD "
      },
      "geometry": {
        "coordinates": [
          153.036017,
          -27.475337
        ],
        "type": "Point"
      },
      "id": "0543f3ac8ebd0c224fa136a31c39d4b2"
    },
    {
      "type": "Feature",
      "properties": {
        "Street Number": "474",
        "Street Name": "UPPER ORMEAU",
        "Street Type": "RD",
        "Suburb": "KINGSHOLME",
        "Postcode": "4208",
        "State": "QLD",
        "Full Address": "474 UPPER ORMEAU RD KINGSHOLME 4208 QLD "
      },
      "geometry": {
        "coordinates": [
          153.22481,
          -27.814205
        ],
        "type": "Point"
      },
      "id": "05f8737b64dd839dec0bc2234d1b4450"
    },
    {
      "type": "Feature",
      "properties": {
        "Street Number": "",
        "Street Name": "Lake Kawana & Prosperity",
        "Street Type": "DR",
        "Suburb": "BIRTINYA",
        "Postcode": "4575",
        "State": "QLD",
        "Full Address": " Lake Kawana & Prosperity DR BIRTINYA 4575 QLD "
      },
      "geometry": {
        "coordinates": [
          153.119424,
          -26.744158
        ],
        "type": "Point"
      },
      "id": "06246adea29337c5ecdff74a4b6ee363"
    },
    {
      "type": "Feature",
      "properties": {
        "Street Number": "7",
        "Street Name": "Giles",
        "Street Type": "ST",
        "Suburb": "STAFFORD HEIGHTS",
        "Postcode": "4053",
        "State": "QLD",
        "Full Address": "7 Giles ST STAFFORD HEIGHTS 4053 QLD "
      },
      "geometry": {
        "coordinates": [
          153.009768,
          -27.395932
        ],
        "type": "Point"
      },
      "id": "0677d46ede8019ac28ad06bf70c19e70"
    },
    {
      "type": "Feature",
      "properties": {
        "Street Number": "78",
        "Street Name": "Kirkleagh",
        "Street Type": "RD",
        "Suburb": "HAZELDEAN",
        "Postcode": "4515",
        "State": "QLD",
        "Full Address": "78 Kirkleagh RD HAZELDEAN 4515 QLD "
      },
      "geometry": {
        "coordinates": [
          152.556646,
          -27.019344
        ],
        "type": "Point"
      },
      "id": "0679d468d82d3312c0f8b92fb5c6154d"
    },
    {
      "type": "Feature",
      "properties": {
        "Street Number": "300",
        "Street Name": "Gympie",
        "Street Type": "RD",
        "Suburb": "TINANA",
        "Postcode": "4650",
        "State": "QLD",
        "Full Address": "300 Gympie RD TINANA 4650 QLD "
      },
      "geometry": {
        "coordinates": [
          152.66572,
          -25.565394
        ],
        "type": "Point"
      },
      "id": "068a8d28ebef2d35a9abf4997fc97619"
    },
    {
      "type": "Feature",
      "properties": {
        "Street Number": "",
        "Street Name": "GOLD COAST & HAWAII AV",
        "Street Type": "HWY",
        "Suburb": "PALM BEACH",
        "Postcode": "4221",
        "State": "QLD",
        "Full Address": " GOLD COAST & HAWAII AV HWY PALM BEACH 4221 QLD "
      },
      "geometry": {
        "coordinates": [
          153.475317,
          -28.125499
        ],
        "type": "Point"
      },
      "id": "06954ca6ad274aef3e2e790fc6c09fe9"
    },
    {
      "type": "Feature",
      "properties": {
        "Street Number": "",
        "Street Name": "Rainbow Beach",
        "Street Type": "RD",
        "Suburb": "COOLOOLA COVE",
        "Postcode": "4580",
        "State": "QLD",
        "Full Address": " Rainbow Beach RD COOLOOLA COVE 4580 QLD "
      },
      "geometry": {
        "coordinates": [
          152.99248,
          -26.00156
        ],
        "type": "Point"
      },
      "id": "06b56cc49e7e17d9f5a2dd06b1058d1c"
    },
    {
      "type": "Feature",
      "properties": {
        "Street Number": "259",
        "Street Name": "Boundary",
        "Street Type": "RD",
        "Suburb": "THORNLANDS",
        "Postcode": "4164",
        "State": "QLD",
        "Full Address": "259 Boundary RD THORNLANDS 4164 QLD "
      },
      "geometry": {
        "coordinates": [
          153.26316,
          -27.572209
        ],
        "type": "Point"
      },
      "id": "06bfcb6ab364d24e6b156f6a0544659b"
    },
    {
      "type": "Feature",
      "properties": {
        "Street Number": "39",
        "Street Name": "West Burleigh",
        "Street Type": "RD",
        "Suburb": "BURLEIGH HEADS",
        "Postcode": "4220",
        "State": "QLD",
        "Full Address": "39 West Burleigh RD BURLEIGH HEADS 4220 QLD "
      },
      "geometry": {
        "coordinates": [
          153.447516,
          -28.090214
        ],
        "type": "Point"
      },
      "id": "071b21d0a4ca0a4cca70a755ec5bdbcc"
    },
    {
      "type": "Feature",
      "properties": {
        "Street Number": "",
        "Street Name": "GREGORY DEVELOPMENTAL",
        "Street Type": "RD",
        "Suburb": "LLANARTH",
        "Postcode": "4820",
        "State": "QLD",
        "Full Address": " GREGORY DEVELOPMENTAL RD LLANARTH 4820 QLD "
      },
      "geometry": {
        "coordinates": [
          146.595444,
          -21.396759
        ],
        "type": "Point"
      },
      "id": "07ae08f308c4cc5a3a11b9c0c4da48ae"
    },
    {
      "type": "Feature",
      "properties": {
        "Street Number": "170",
        "Street Name": "Rosemount",
        "Street Type": "DR",
        "Suburb": "WILLOW VALE",
        "Postcode": "4209",
        "State": "QLD",
        "Full Address": "170 Rosemount DR WILLOW VALE 4209 QLD "
      },
      "geometry": {
        "coordinates": [
          153.286771,
          -27.833807
        ],
        "type": "Point"
      },
      "id": "07df5c031a8689804431a71f5205547e"
    },
    {
      "type": "Feature",
      "properties": {
        "Street Number": "",
        "Street Name": "CENTENARY MOTORWAY ON",
        "Street Type": "RAMP",
        "Suburb": "FIG TREE POCKET",
        "Postcode": "4069",
        "State": "QLD",
        "Full Address": " CENTENARY MOTORWAY ON RAMP FIG TREE POCKET 4069 QLD "
      },
      "geometry": {
        "coordinates": [
          152.947383,
          -27.525824
        ],
        "type": "Point"
      },
      "id": "080e1b6d657862fd047d743b5e3094ce"
    },
    {
      "type": "Feature",
      "properties": {
        "Street Number": "",
        "Street Name": "CHALK & LUTWYCHE",
        "Street Type": "RD",
        "Suburb": "LUTWYCHE",
        "Postcode": "4030",
        "State": "QLD",
        "Full Address": " CHALK & LUTWYCHE RD LUTWYCHE 4030 QLD "
      },
      "geometry": {
        "coordinates": [
          153.03395,
          -27.421323
        ],
        "type": "Point"
      },
      "id": "082fac4870124493358600ad5ea4ba4c"
    },
    {
      "type": "Feature",
      "properties": {
        "Street Number": "30",
        "Street Name": "Vogel",
        "Street Type": "RD",
        "Suburb": "BRASSALL",
        "Postcode": "4305",
        "State": "QLD",
        "Full Address": "30 Vogel RD BRASSALL 4305 QLD "
      },
      "geometry": {
        "coordinates": [
          152.742056,
          -27.59304
        ],
        "type": "Point"
      },
      "id": "08307b06c66b3adbcfae8fb74dfdfba1"
    },
    {
      "type": "Feature",
      "properties": {
        "Street Number": "",
        "Street Name": "Bruce & Stockroute",
        "Street Type": "RD",
        "Suburb": "BAKERS CREEK",
        "Postcode": "4740",
        "State": "QLD",
        "Full Address": " Bruce & Stockroute RD BAKERS CREEK 4740 QLD "
      },
      "geometry": {
        "coordinates": [
          149.148033,
          -21.204387
        ],
        "type": "Point"
      },
      "id": "08859c103c561fb87e4581479ddd1fa8"
    },
    {
      "type": "Feature",
      "properties": {
        "Street Number": "",
        "Street Name": "George & Johnston",
        "Street Type": "ST",
        "Suburb": "SOUTHPORT",
        "Postcode": "4215",
        "State": "QLD",
        "Full Address": " George & Johnston ST SOUTHPORT 4215 QLD "
      },
      "geometry": {
        "coordinates": [
          153.405971,
          -27.965296
        ],
        "type": "Point"
      },
      "id": "08ad37f5141522915074b928674e9b20"
    },
    {
      "type": "Feature",
      "properties": {
        "Street Number": "",
        "Street Name": "WISES & MAROOCHY",
        "Street Type": "BVD",
        "Suburb": "BUDERIM",
        "Postcode": "4556",
        "State": "QLD",
        "Full Address": " WISES & MAROOCHY BVD BUDERIM 4556 QLD "
      },
      "geometry": {
        "coordinates": [
          153.083697,
          -26.670725
        ],
        "type": "Point"
      },
      "id": "093d6973ccd6a8db2e33c1e78c517af9"
    },
    {
      "type": "Feature",
      "properties": {
        "Street Number": "2月20日",
        "Street Name": "Topton",
        "Street Type": "ST",
        "Suburb": "ALVA",
        "Postcode": "4807",
        "State": "QLD",
        "Full Address": "Wed Feb 19 2020 15:00:00 GMT+0100 (CET) Topton ST ALVA 4807 QLD "
      },
      "geometry": {
        "coordinates": [
          147.480701,
          -19.454803
        ],
        "type": "Point"
      },
      "id": "096415cff20692d53e786040d285b57b"
    },
    {
      "type": "Feature",
      "properties": {
        "Street Number": "",
        "Street Name": "Haigslea Amberley & Warrego",
        "Street Type": "HWY",
        "Suburb": "WALLOON",
        "Postcode": "4306",
        "State": "QLD",
        "Full Address": " Haigslea Amberley & Warrego HWY WALLOON 4306 QLD "
      },
      "geometry": {
        "coordinates": [
          152.664792,
          -27.575355
        ],
        "type": "Point"
      },
      "id": "09c9f9d274c91d9faace9840a493d8e1"
    },
    {
      "type": "Feature",
      "properties": {
        "Street Number": "63",
        "Street Name": "Murphy",
        "Street Type": "RD",
        "Suburb": "ZILLMERE",
        "Postcode": "4034",
        "State": "QLD",
        "Full Address": "63 Murphy RD ZILLMERE 4034 QLD "
      },
      "geometry": {
        "coordinates": [
          153.037363,
          -27.362068
        ],
        "type": "Point"
      },
      "id": "09d8749a03172d44300e5103a4e0d257"
    },
    {
      "type": "Feature",
      "properties": {
        "Street Number": "",
        "Street Name": "Helensvale & Discovery",
        "Street Type": "DR",
        "Suburb": "HELENSVALE",
        "Postcode": "4212",
        "State": "QLD",
        "Full Address": " Helensvale & Discovery DR HELENSVALE 4212 QLD "
      },
      "geometry": {
        "coordinates": [
          153.329891,
          -27.913773
        ],
        "type": "Point"
      },
      "id": "09edac74c920b9866e7c6d9ed9d44a74"
    },
    {
      "type": "Feature",
      "properties": {
        "Street Number": "",
        "Street Name": "Research",
        "Street Type": "ST",
        "Suburb": "COOLUM BEACH",
        "Postcode": "4573",
        "State": "QLD",
        "Full Address": " Research ST COOLUM BEACH 4573 QLD "
      },
      "geometry": {
        "coordinates": [
          153.060145,
          -26.516224
        ],
        "type": "Point"
      },
      "id": "09f6f9e49425d1d75b6912012f250733"
    },
    {
      "type": "Feature",
      "properties": {
        "Street Number": "963-1193",
        "Street Name": "Barambah",
        "Street Type": "RD",
        "Suburb": "MOFFATDALE",
        "Postcode": "4605",
        "State": "QLD",
        "Full Address": "963-1193 Barambah RD MOFFATDALE 4605 QLD "
      },
      "geometry": {
        "coordinates": [
          151.956199,
          -26.290803
        ],
        "type": "Point"
      },
      "id": "0a8e6671a4e249a3cba986b8ce893946"
    },
    {
      "type": "Feature",
      "properties": {
        "Street Number": "247",
        "Street Name": "Anzac",
        "Street Type": "AVE",
        "Suburb": "MARIAN",
        "Postcode": "4753",
        "State": "QLD",
        "Full Address": "247 Anzac AVE MARIAN 4753 QLD "
      },
      "geometry": {
        "coordinates": [
          148.952649,
          -21.147992
        ],
        "type": "Point"
      },
      "id": "0a8e73915cef7bc55cb36037cbfb1404"
    },
    {
      "type": "Feature",
      "properties": {
        "Street Number": "75",
        "Street Name": "Eversleigh",
        "Street Type": "RD",
        "Suburb": "SARINA",
        "Postcode": "4737",
        "State": "QLD",
        "Full Address": "75 Eversleigh RD SARINA 4737 QLD "
      },
      "geometry": {
        "coordinates": [
          149.23416,
          -21.379278
        ],
        "type": "Point"
      },
      "id": "0aac50445dc302a5d377552ae05521a1"
    },
    {
      "type": "Feature",
      "properties": {
        "Street Number": "132-134",
        "Street Name": "Duringan",
        "Street Type": "ST",
        "Suburb": "CURRUMBIN",
        "Postcode": "4223",
        "State": "QLD",
        "Full Address": "132-134 Duringan ST CURRUMBIN 4223 QLD "
      },
      "geometry": {
        "coordinates": [
          153.478045,
          -28.136442
        ],
        "type": "Point"
      },
      "id": "0b1557266e002ab66322706632227f5a"
    },
    {
      "type": "Feature",
      "properties": {
        "Street Number": "105",
        "Street Name": "Ruffles",
        "Street Type": "RD",
        "Suburb": "WILLOW VALE",
        "Postcode": "4209",
        "State": "QLD",
        "Full Address": "105 Ruffles RD WILLOW VALE 4209 QLD "
      },
      "geometry": {
        "coordinates": [
          153.271573,
          -27.844178
        ],
        "type": "Point"
      },
      "id": "0b8cf5b6795664f4fe25590ed6469dd8"
    },
    {
      "type": "Feature",
      "properties": {
        "Street Number": "",
        "Street Name": "Kelsey Creek",
        "Street Type": "RD",
        "Suburb": "KELSEY CREEK",
        "Postcode": "4800",
        "State": "QLD",
        "Full Address": " Kelsey Creek RD KELSEY CREEK 4800 QLD "
      },
      "geometry": {
        "coordinates": [
          148.499857,
          -20.409864
        ],
        "type": "Point"
      },
      "id": "0bcad94e459435a18b5ef0ec020204d7"
    },
    {
      "type": "Feature",
      "properties": {
        "Street Number": "",
        "Street Name": "James & Mackenzie",
        "Street Type": "ST",
        "Suburb": "RANGEVILLE",
        "Postcode": "4350",
        "State": "QLD",
        "Full Address": " James & Mackenzie ST RANGEVILLE 4350 QLD "
      },
      "geometry": {
        "coordinates": [
          151.970045,
          -27.571139
        ],
        "type": "Point"
      },
      "id": "0bdcea3190f2a4024e632f90468da953"
    },
    {
      "type": "Feature",
      "properties": {
        "Street Number": "",
        "Street Name": "Gladstone Mount Larcom",
        "Street Type": "RD",
        "Suburb": "YARWUN",
        "Postcode": "4694",
        "State": "QLD",
        "Full Address": " Gladstone Mount Larcom RD YARWUN 4694 QLD "
      },
      "geometry": {
        "coordinates": [
          151.121152,
          -23.839594
        ],
        "type": "Point"
      },
      "id": "0c2af708f6758630e09e54b27b7143f9"
    },
    {
      "type": "Feature",
      "properties": {
        "Street Number": "",
        "Street Name": "Latimer & Quinzeh Creek",
        "Street Type": "RD",
        "Suburb": "LOGAN VILLAGE",
        "Postcode": "4207",
        "State": "QLD",
        "Full Address": " Latimer & Quinzeh Creek RD LOGAN VILLAGE 4207 QLD "
      },
      "geometry": {
        "coordinates": [
          153.13501,
          -27.78335
        ],
        "type": "Point"
      },
      "id": "0c743c2b4ba1c812d4d86a81a7fb6c02"
    },
    {
      "type": "Feature",
      "properties": {
        "Street Number": "400",
        "Street Name": "ALBANY CREEK",
        "Street Type": "RD",
        "Suburb": "BRIDGEMAN DOWNS",
        "Postcode": "4035",
        "State": "QLD",
        "Full Address": "400 ALBANY CREEK RD BRIDGEMAN DOWNS 4035 QLD "
      },
      "geometry": {
        "coordinates": [
          152.99001,
          -27.354173
        ],
        "type": "Point"
      },
      "id": "0cc493f91b3a1d6e8446ee0cc8f85a9a"
    },
    {
      "type": "Feature",
      "properties": {
        "Street Number": "",
        "Street Name": "HERRIES & PRESCOTT",
        "Street Type": "ST",
        "Suburb": "TOOWOOMBA CITY",
        "Postcode": "4350",
        "State": "QLD",
        "Full Address": " HERRIES & PRESCOTT ST TOOWOOMBA CITY 4350 QLD "
      },
      "geometry": {
        "coordinates": [
          151.94792,
          -27.563851
        ],
        "type": "Point"
      },
      "id": "0cdb7c813f596dc0719e4ebdeb37c010"
    },
    {
      "type": "Feature",
      "properties": {
        "Street Number": "",
        "Street Name": "Gympie Woolooga",
        "Street Type": "RD",
        "Suburb": "WIDGEE",
        "Postcode": "4570",
        "State": "QLD",
        "Full Address": " Gympie Woolooga RD WIDGEE 4570 QLD "
      },
      "geometry": {
        "coordinates": [
          152.457509,
          -26.204868
        ],
        "type": "Point"
      },
      "id": "0ce1c752a5ac8f5945afc8d127dc7b81"
    },
    {
      "type": "Feature",
      "properties": {
        "Street Number": "251",
        "Street Name": "Richmond",
        "Street Type": "RD",
        "Suburb": "MORNINGSIDE",
        "Postcode": "4170",
        "State": "QLD",
        "Full Address": "251 Richmond RD MORNINGSIDE 4170 QLD "
      },
      "geometry": {
        "coordinates": [
          153.082747,
          -27.473289
        ],
        "type": "Point"
      },
      "id": "0cebb3f9c5494ef4d6aabc3598317cf4"
    },
    {
      "type": "Feature",
      "properties": {
        "Street Number": "",
        "Street Name": "Geaney & Deeragun",
        "Street Type": "RD",
        "Suburb": "DEERAGUN",
        "Postcode": "4818",
        "State": "QLD",
        "Full Address": " Geaney & Deeragun RD DEERAGUN 4818 QLD "
      },
      "geometry": {
        "coordinates": [
          146.678069,
          -19.247624
        ],
        "type": "Point"
      },
      "id": "0d0e01ce98d300ba75435ec2e0dd115c"
    },
    {
      "type": "Feature",
      "properties": {
        "Street Number": "87",
        "Street Name": "Ruby",
        "Street Type": "CRES",
        "Suburb": "THE GEMFIELDS",
        "Postcode": "4702",
        "State": "QLD",
        "Full Address": "87 Ruby CRES THE GEMFIELDS 4702 QLD "
      },
      "geometry": {
        "coordinates": [
          147.686834,
          -23.414853
        ],
        "type": "Point"
      },
      "id": "0d30345ee14bc12e9c0bbec8c15d04d0"
    },
    {
      "type": "Feature",
      "properties": {
        "Street Number": "94",
        "Street Name": "Frank",
        "Street Type": "ST",
        "Suburb": "LABRADOR",
        "Postcode": "4215",
        "State": "QLD",
        "Full Address": "94 Frank ST LABRADOR 4215 QLD "
      },
      "geometry": {
        "coordinates": [
          153.408375,
          -27.94789
        ],
        "type": "Point"
      },
      "id": "0d65ff5d4d1280e61de7d48288fb4590"
    },
    {
      "type": "Feature",
      "properties": {
        "Street Number": "28",
        "Street Name": "Earl",
        "Street Type": "ST",
        "Suburb": "MEMERAMBI",
        "Postcode": "4610",
        "State": "QLD",
        "Full Address": "28 Earl ST MEMERAMBI 4610 QLD "
      },
      "geometry": {
        "coordinates": [
          151.825054,
          -26.450425
        ],
        "type": "Point"
      },
      "id": "0d9486d77e4c482347d43297aace71a1"
    },
    {
      "type": "Feature",
      "properties": {
        "Street Number": "13",
        "Street Name": "GREENWOOD",
        "Street Type": "ST",
        "Suburb": "SPRINGFIELD LAKES",
        "Postcode": "4300",
        "State": "QLD",
        "Full Address": "13 GREENWOOD ST SPRINGFIELD LAKES 4300 QLD "
      },
      "geometry": {
        "coordinates": [
          152.914501,
          -27.672557
        ],
        "type": "Point"
      },
      "id": "0dbe5d2e01b8e9759bf8a0b68e55af6f"
    },
    {
      "type": "Feature",
      "properties": {
        "Street Number": "",
        "Street Name": "Gympie & Hamilton",
        "Street Type": "RD",
        "Suburb": "CHERMSIDE",
        "Postcode": "4032",
        "State": "QLD",
        "Full Address": " Gympie & Hamilton RD CHERMSIDE 4032 QLD "
      },
      "geometry": {
        "coordinates": [
          153.030802,
          -27.38586
        ],
        "type": "Point"
      },
      "id": "0dec096182d4b350297caebc6d1403d6"
    },
    {
      "type": "Feature",
      "properties": {
        "Street Number": "",
        "Street Name": "Coombabah & Ashgrove",
        "Street Type": "AVE",
        "Suburb": "RUNAWAY BAY",
        "Postcode": "4216",
        "State": "QLD",
        "Full Address": " Coombabah & Ashgrove AVE RUNAWAY BAY 4216 QLD "
      },
      "geometry": {
        "coordinates": [
          153.396158,
          -27.926964
        ],
        "type": "Point"
      },
      "id": "0e130471c6a2897852e727ceb944465f"
    },
    {
      "type": "Feature",
      "properties": {
        "Street Number": "",
        "Street Name": "Victoria & Albion",
        "Street Type": "ST",
        "Suburb": "WARWICK",
        "Postcode": "4370",
        "State": "QLD",
        "Full Address": " Victoria & Albion ST WARWICK 4370 QLD "
      },
      "geometry": {
        "coordinates": [
          152.036089,
          -28.210315
        ],
        "type": "Point"
      },
      "id": "0e7a9174219c7559ae5983e00146cddd"
    },
    {
      "type": "Feature",
      "properties": {
        "Street Number": "",
        "Street Name": "WYNNUM & MURARRIE",
        "Street Type": "RD",
        "Suburb": "TINGALPA",
        "Postcode": "4173",
        "State": "QLD",
        "Full Address": " WYNNUM & MURARRIE RD TINGALPA 4173 QLD "
      },
      "geometry": {
        "coordinates": [
          153.113571,
          -27.472887
        ],
        "type": "Point"
      },
      "id": "0e918c2300d9c2460914480bca6eaba7"
    },
    {
      "type": "Feature",
      "properties": {
        "Street Number": "",
        "Street Name": "OCEAN & ASHGROVE",
        "Street Type": "AVE",
        "Suburb": "RUNAWAY BAY",
        "Postcode": "4216",
        "State": "QLD",
        "Full Address": " OCEAN & ASHGROVE AVE RUNAWAY BAY 4216 QLD "
      },
      "geometry": {
        "coordinates": [
          153.396637,
          -27.924379
        ],
        "type": "Point"
      },
      "id": "0eaa03a8bd9dba51ef2ff9a865c58063"
    },
    {
      "type": "Feature",
      "properties": {
        "Street Number": "",
        "Street Name": "BRISBANE & COLE",
        "Street Type": "ST",
        "Suburb": "BOOVAL",
        "Postcode": "4304",
        "State": "QLD",
        "Full Address": " BRISBANE & COLE ST BOOVAL 4304 QLD "
      },
      "geometry": {
        "coordinates": [
          152.791228,
          -27.613908
        ],
        "type": "Point"
      },
      "id": "0eb32fc81ce7fa95e87c60e8eefd07a0"
    },
    {
      "type": "Feature",
      "properties": {
        "Street Number": "52",
        "Street Name": "Prospect",
        "Street Type": "ST",
        "Suburb": "LOWOOD",
        "Postcode": "4311",
        "State": "QLD",
        "Full Address": "52 Prospect ST LOWOOD 4311 QLD "
      },
      "geometry": {
        "coordinates": [
          152.579414,
          -27.467084
        ],
        "type": "Point"
      },
      "id": "0ec9311d7b499efe67f04b8ffee54ad2"
    },
    {
      "type": "Feature",
      "properties": {
        "Street Number": "",
        "Street Name": "SAMFORD ROAD EXIT & SETTLEMENT",
        "Street Type": "RD",
        "Suburb": "KEPERRA",
        "Postcode": "4054",
        "State": "QLD",
        "Full Address": " SAMFORD ROAD EXIT & SETTLEMENT RD KEPERRA 4054 QLD "
      },
      "geometry": {
        "coordinates": [
          152.948905,
          -27.414433
        ],
        "type": "Point"
      },
      "id": "0ede6b42a24b4c8240e9ded7c32a6031"
    },
    {
      "type": "Feature",
      "properties": {
        "Street Number": "4",
        "Street Name": "Broad",
        "Street Type": "ST",
        "Suburb": "SARINA",
        "Postcode": "4737",
        "State": "QLD",
        "Full Address": "4 Broad ST SARINA 4737 QLD "
      },
      "geometry": {
        "coordinates": [
          149.218662,
          -21.424548
        ],
        "type": "Point"
      },
      "id": "0ee666d4486a75e6dfba519a8da8f799"
    },
    {
      "type": "Feature",
      "properties": {
        "Street Number": "",
        "Street Name": "MOUNT GRAVATT CAPALABA & PROUT",
        "Street Type": "RD",
        "Suburb": "BURBANK",
        "Postcode": "4155",
        "State": "QLD",
        "Full Address": " MOUNT GRAVATT CAPALABA & PROUT RD BURBANK 4155 QLD "
      },
      "geometry": {
        "coordinates": [
          153.157686,
          -27.530098
        ],
        "type": "Point"
      },
      "id": "0f2bfdbc6c8ecd4dc5d912ffccdc53f1"
    },
    {
      "type": "Feature",
      "properties": {
        "Street Number": "38",
        "Street Name": "Conifer",
        "Street Type": "CRES",
        "Suburb": "BROADBEACH WATERS",
        "Postcode": "4218",
        "State": "QLD",
        "Full Address": "38 Conifer CRES BROADBEACH WATERS 4218 QLD "
      },
      "geometry": {
        "coordinates": [
          153.399044,
          -28.027875
        ],
        "type": "Point"
      },
      "id": "0f6569d6e166a0b543b3cc84d3196dcc"
    },
    {
      "type": "Feature",
      "properties": {
        "Street Number": "432",
        "Street Name": "CLAGIRABA",
        "Street Type": "RD",
        "Suburb": "MOUNT NATHAN",
        "Postcode": "4211",
        "State": "QLD",
        "Full Address": "432 CLAGIRABA RD MOUNT NATHAN 4211 QLD "
      },
      "geometry": {
        "coordinates": [
          153.277036,
          -28.007467
        ],
        "type": "Point"
      },
      "id": "0fb8f95ace2268ccd597e89526705a8e"
    },
    {
      "type": "Feature",
      "properties": {
        "Street Number": "",
        "Street Name": "VEALES & BRUCE",
        "Street Type": "HWY",
        "Suburb": "JENSEN",
        "Postcode": "4818",
        "State": "QLD",
        "Full Address": " VEALES & BRUCE HWY JENSEN 4818 QLD "
      },
      "geometry": {
        "coordinates": [
          146.654105,
          -19.234589
        ],
        "type": "Point"
      },
      "id": "0fd60eee4605d02a0db541899bfa39ba"
    },
    {
      "type": "Feature",
      "properties": {
        "Street Number": "",
        "Street Name": "Melbourne & Hope",
        "Street Type": "ST",
        "Suburb": "SOUTH BRISBANE",
        "Postcode": "4101",
        "State": "QLD",
        "Full Address": " Melbourne & Hope ST SOUTH BRISBANE 4101 QLD "
      },
      "geometry": {
        "coordinates": [
          153.015869,
          -27.471943
        ],
        "type": "Point"
      },
      "id": "10a44ac40bfa2c42145abc2afa4a013b"
    },
    {
      "type": "Feature",
      "properties": {
        "Street Number": "271",
        "Street Name": "JONES",
        "Street Type": "RD",
        "Suburb": "BELLBIRD PARK",
        "Postcode": "4300",
        "State": "QLD",
        "Full Address": "271 JONES RD BELLBIRD PARK 4300 QLD "
      },
      "geometry": {
        "coordinates": [
          152.888521,
          -27.630363
        ],
        "type": "Point"
      },
      "id": "10f16d5075bd2c25aefea25dca3c4eea"
    },
    {
      "type": "Feature",
      "properties": {
        "Street Number": "18",
        "Street Name": "Captain Cook",
        "Street Type": "HWY",
        "Suburb": "PORT DOUGLAS",
        "Postcode": "4877",
        "State": "QLD",
        "Full Address": "18 Captain Cook HWY PORT DOUGLAS 4877 QLD "
      },
      "geometry": {
        "coordinates": [
          145.566787,
          -16.658885
        ],
        "type": "Point"
      },
      "id": "1148afc44e74c5d5b439bb7723ecb807"
    },
    {
      "type": "Feature",
      "properties": {
        "Street Number": "632",
        "Street Name": "SIR SAMUEL GRIFFITH",
        "Street Type": "DR",
        "Suburb": "MOUNT COOTTHA",
        "Postcode": "4066",
        "State": "QLD",
        "Full Address": "632 SIR SAMUEL GRIFFITH DR MOUNT COOTTHA 4066 QLD "
      },
      "geometry": {
        "coordinates": [
          152.94197,
          -27.47134
        ],
        "type": "Point"
      },
      "id": "11664dbbb63b2ee1b4689ef79b288894"
    },
    {
      "type": "Feature",
      "properties": {
        "Street Number": "1913-2736",
        "Street Name": "NEW ENGLAND",
        "Street Type": "HWY",
        "Suburb": "COOYAR",
        "Postcode": "4402",
        "State": "QLD",
        "Full Address": "1913-2736 NEW ENGLAND HWY COOYAR 4402 QLD "
      },
      "geometry": {
        "coordinates": [
          151.808564,
          -26.935527
        ],
        "type": "Point"
      },
      "id": "1177645324b4cb0e27e0cd8ba1a27706"
    },
    {
      "type": "Feature",
      "properties": {
        "Street Number": "443",
        "Street Name": "Ross River",
        "Street Type": "RD",
        "Suburb": "CRANBROOK",
        "Postcode": "4814",
        "State": "QLD",
        "Full Address": "443 Ross River RD CRANBROOK 4814 QLD "
      },
      "geometry": {
        "coordinates": [
          146.74937,
          -19.3047
        ],
        "type": "Point"
      },
      "id": "11bc3ed2e5e7c267fb4dbed581c1e029"
    },
    {
      "type": "Feature",
      "properties": {
        "Street Number": "",
        "Street Name": "GREGORY DEVELOPMENTAL & KILCUMMIN DIAMOND DOWNS",
        "Street Type": "RD",
        "Suburb": "KILCUMMIN",
        "Postcode": "4721",
        "State": "QLD",
        "Full Address": " GREGORY DEVELOPMENTAL & KILCUMMIN DIAMOND DOWNS RD KILCUMMIN 4721 QLD "
      },
      "geometry": {
        "coordinates": [
          147.476896,
          -22.486433
        ],
        "type": "Point"
      },
      "id": "11d93d7f2a5ba39ad4c27c216b67e299"
    },
    {
      "type": "Feature",
      "properties": {
        "Street Number": "247",
        "Street Name": "Anzac",
        "Street Type": "AVE",
        "Suburb": "MARIAN",
        "Postcode": "4753",
        "State": "QLD",
        "Full Address": "247 Anzac AVE MARIAN 4753 QLD "
      },
      "geometry": {
        "coordinates": [
          148.952649,
          -21.147992
        ],
        "type": "Point"
      },
      "id": "1311fb2e62ce0d770b17cfa0c4ada7bd"
    },
    {
      "type": "Feature",
      "properties": {
        "Street Number": "",
        "Street Name": "Kennedy",
        "Street Type": "HWY",
        "Suburb": "MAREEBA",
        "Postcode": "4880",
        "State": "QLD",
        "Full Address": " Kennedy HWY MAREEBA 4880 QLD "
      },
      "geometry": {
        "coordinates": [
          145.45912,
          -16.999353
        ],
        "type": "Point"
      },
      "id": "1389782c2a6cc7e21d55dc1e36d107b7"
    },
    {
      "type": "Feature",
      "properties": {
        "Street Number": "",
        "Street Name": "Bruce & Anzac Avenue Off",
        "Street Type": "RAMP",
        "Suburb": "NORTH LAKES",
        "Postcode": "4509",
        "State": "QLD",
        "Full Address": " Bruce & Anzac Avenue Off RAMP NORTH LAKES 4509 QLD "
      },
      "geometry": {
        "coordinates": [
          153.001063,
          -27.226916
        ],
        "type": "Point"
      },
      "id": "13c1d09f2f5000403f839b73a8b45acc"
    },
    {
      "type": "Feature",
      "properties": {
        "Street Number": "",
        "Street Name": "PACIFIC",
        "Street Type": "MWY",
        "Suburb": "HELENSVALE",
        "Postcode": "4212",
        "State": "QLD",
        "Full Address": " PACIFIC MWY HELENSVALE 4212 QLD "
      },
      "geometry": {
        "coordinates": [
          153.31883,
          -27.911531
        ],
        "type": "Point"
      },
      "id": "13ecc14734d0ffb2ef307ad6c4863b92"
    },
    {
      "type": "Feature",
      "properties": {
        "Street Number": "",
        "Street Name": "Pumicestone & Ardrossan",
        "Street Type": "RD",
        "Suburb": "CABOOLTURE",
        "Postcode": "4510",
        "State": "QLD",
        "Full Address": " Pumicestone & Ardrossan RD CABOOLTURE 4510 QLD "
      },
      "geometry": {
        "coordinates": [
          152.958826,
          -27.059465
        ],
        "type": "Point"
      },
      "id": "14adabf49e9e24ffaa4139fdb3ae14e5"
    },
    {
      "type": "Feature",
      "properties": {
        "Street Number": "",
        "Street Name": "Bremer",
        "Street Type": "ST",
        "Suburb": "IPSWICH",
        "Postcode": "4305",
        "State": "QLD",
        "Full Address": " Bremer ST IPSWICH 4305 QLD "
      },
      "geometry": {
        "coordinates": [
          152.76089,
          -27.611745
        ],
        "type": "Point"
      },
      "id": "14f1f5b34c558a48b86b055f1000d424"
    },
    {
      "type": "Feature",
      "properties": {
        "Street Number": "1875",
        "Street Name": "FINGERBOARD",
        "Street Type": "RD",
        "Suburb": "MOUNT TOM",
        "Postcode": "4677",
        "State": "QLD",
        "Full Address": "1875 FINGERBOARD RD MOUNT TOM 4677 QLD "
      },
      "geometry": {
        "coordinates": [
          151.740363,
          -24.386496
        ],
        "type": "Point"
      },
      "id": "1506db6ec7f70483b3840ac272a6ac24"
    },
    {
      "type": "Feature",
      "properties": {
        "Street Number": "10",
        "Street Name": "Werin",
        "Street Type": "ST",
        "Suburb": "TEWANTIN",
        "Postcode": "4565",
        "State": "QLD",
        "Full Address": "10 Werin ST TEWANTIN 4565 QLD "
      },
      "geometry": {
        "coordinates": [
          153.031523,
          -26.389708
        ],
        "type": "Point"
      },
      "id": "15aa9f88ad2d817a75730fa03b157fba"
    },
    {
      "type": "Feature",
      "properties": {
        "Street Number": "",
        "Street Name": "BUNYA & WEBBS",
        "Street Type": "RD",
        "Suburb": "MEMERAMBI",
        "Postcode": "4610",
        "State": "QLD",
        "Full Address": " BUNYA & WEBBS RD MEMERAMBI 4610 QLD "
      },
      "geometry": {
        "coordinates": [
          151.817362,
          -26.437662
        ],
        "type": "Point"
      },
      "id": "15c2d31a717c8959e55c9fff576d5e85"
    },
    {
      "type": "Feature",
      "properties": {
        "Street Number": "24393",
        "Street Name": "FLINDERS",
        "Street Type": "HWY",
        "Suburb": "PENTLAND",
        "Postcode": "4816",
        "State": "QLD",
        "Full Address": "24393 FLINDERS HWY PENTLAND 4816 QLD "
      },
      "geometry": {
        "coordinates": [
          145.714098,
          -20.319833
        ],
        "type": "Point"
      },
      "id": "1603dfa9e6a8fc3d7fc9a703e32fc85c"
    },
    {
      "type": "Feature",
      "properties": {
        "Street Number": "",
        "Street Name": "Ipswich & Blunder",
        "Street Type": "RD",
        "Suburb": "OXLEY",
        "Postcode": "4075",
        "State": "QLD",
        "Full Address": " Ipswich & Blunder RD OXLEY 4075 QLD "
      },
      "geometry": {
        "coordinates": [
          152.982233,
          -27.567819
        ],
        "type": "Point"
      },
      "id": "164b5ed7156b78bb0d6505e95baf70cc"
    },
    {
      "type": "Feature",
      "properties": {
        "Street Number": "",
        "Street Name": "BRUCE & DRAPER",
        "Street Type": "RD",
        "Suburb": "GORDONVALE",
        "Postcode": "4865",
        "State": "QLD",
        "Full Address": " BRUCE & DRAPER RD GORDONVALE 4865 QLD "
      },
      "geometry": {
        "coordinates": [
          145.775145,
          -17.08582
        ],
        "type": "Point"
      },
      "id": "16822238129399793f60c7776d6ef8d6"
    },
    {
      "type": "Feature",
      "properties": {
        "Street Number": "6027",
        "Street Name": "MOUNT LINDESAY",
        "Street Type": "HWY",
        "Suburb": "WOODHILL",
        "Postcode": "4285",
        "State": "QLD",
        "Full Address": "6027 MOUNT LINDESAY HWY WOODHILL 4285 QLD "
      },
      "geometry": {
        "coordinates": [
          152.974719,
          -27.893845
        ],
        "type": "Point"
      },
      "id": "1687c629e27aac3f7bca97c0e4f66172"
    },
    {
      "type": "Feature",
      "properties": {
        "Street Number": "2744",
        "Street Name": "Boonah Rathdowney",
        "Street Type": "RD",
        "Suburb": "MAROON",
        "Postcode": "4310",
        "State": "QLD",
        "Full Address": "2744 Boonah Rathdowney RD MAROON 4310 QLD "
      },
      "geometry": {
        "coordinates": [
          152.710264,
          -28.17142
        ],
        "type": "Point"
      },
      "id": "16ba8de512c803d735b09efb4f6c0f9d"
    },
    {
      "type": "Feature",
      "properties": {
        "Street Number": "",
        "Street Name": "WATERFORD TAMBORINE & CAMP CABLE",
        "Street Type": "RD",
        "Suburb": "YARRABILBA",
        "Postcode": "4207",
        "State": "QLD",
        "Full Address": " WATERFORD TAMBORINE & CAMP CABLE RD YARRABILBA 4207 QLD "
      },
      "geometry": {
        "coordinates": [
          153.099659,
          -27.800417
        ],
        "type": "Point"
      },
      "id": "172b2b0b00d24fedcc809ff66b7a7ba6"
    },
    {
      "type": "Feature",
      "properties": {
        "Street Number": "",
        "Street Name": "Warrego",
        "Street Type": "HWY",
        "Suburb": "GATTON",
        "Postcode": "4343",
        "State": "QLD",
        "Full Address": " Warrego HWY GATTON 4343 QLD "
      },
      "geometry": {
        "coordinates": [
          152.272137,
          -27.537373
        ],
        "type": "Point"
      },
      "id": "17816021806c384b48f34d4168b7c4df"
    },
    {
      "type": "Feature",
      "properties": {
        "Street Number": "",
        "Street Name": "CONAVALLA",
        "Street Type": "ST",
        "Suburb": "FERNY GROVE",
        "Postcode": "4055",
        "State": "QLD",
        "Full Address": " CONAVALLA ST FERNY GROVE 4055 QLD "
      },
      "geometry": {
        "coordinates": [
          152.934416,
          -27.401181
        ],
        "type": "Point"
      },
      "id": "17a53b9fecad5556e78c90eead8fa561"
    },
    {
      "type": "Feature",
      "properties": {
        "Street Number": "2",
        "Street Name": "Adelaide",
        "Street Type": "CRES",
        "Suburb": "ORMEAU HILLS",
        "Postcode": "4208",
        "State": "QLD",
        "Full Address": "2 Adelaide CRES ORMEAU HILLS 4208 QLD "
      },
      "geometry": {
        "coordinates": [
          153.251229,
          -27.800771
        ],
        "type": "Point"
      },
      "id": "17d251f553a9f9af7fdeb78404d8af15"
    },
    {
      "type": "Feature",
      "properties": {
        "Street Number": "",
        "Street Name": "Union & Moggill",
        "Street Type": "RD",
        "Suburb": "TARINGA",
        "Postcode": "4068",
        "State": "QLD",
        "Full Address": " Union & Moggill RD TARINGA 4068 QLD "
      },
      "geometry": {
        "coordinates": [
          152.986284,
          -27.490277
        ],
        "type": "Point"
      },
      "id": "17e910abf572734258ac5aee5346efa4"
    },
    {
      "type": "Feature",
      "properties": {
        "Street Number": "15",
        "Street Name": "FRESHWATER",
        "Street Type": "ST",
        "Suburb": "MOUNTAIN CREEK",
        "Postcode": "4557",
        "State": "QLD",
        "Full Address": "15 FRESHWATER ST MOUNTAIN CREEK 4557 QLD "
      },
      "geometry": {
        "coordinates": [
          153.109057,
          -26.709605
        ],
        "type": "Point"
      },
      "id": "186d203cf79dc54a021c833d409f6c90"
    },
    {
      "type": "Feature",
      "properties": {
        "Street Number": "",
        "Street Name": "BRISBANE & POWELL",
        "Street Type": "ST",
        "Suburb": "BOWEN",
        "Postcode": "4805",
        "State": "QLD",
        "Full Address": " BRISBANE & POWELL ST BOWEN 4805 QLD "
      },
      "geometry": {
        "coordinates": [
          148.248293,
          -20.010912
        ],
        "type": "Point"
      },
      "id": "187744ab7d63e434e3bc6206e7ecaad2"
    },
    {
      "type": "Feature",
      "properties": {
        "Street Number": "",
        "Street Name": "Powell & Gregory",
        "Street Type": "ST",
        "Suburb": "BOWEN",
        "Postcode": "4805",
        "State": "QLD",
        "Full Address": " Powell & Gregory ST BOWEN 4805 QLD "
      },
      "geometry": {
        "coordinates": [
          148.244368,
          -20.013125
        ],
        "type": "Point"
      },
      "id": "18b1219eb8cf984745762f8f619a9ef2"
    },
    {
      "type": "Feature",
      "properties": {
        "Street Number": "",
        "Street Name": "MARY VALLEY & BIRT",
        "Street Type": "RD",
        "Suburb": "LONG FLAT",
        "Postcode": "4570",
        "State": "QLD",
        "Full Address": " MARY VALLEY & BIRT RD LONG FLAT 4570 QLD "
      },
      "geometry": {
        "coordinates": [
          152.662677,
          -26.260695
        ],
        "type": "Point"
      },
      "id": "192af460cfc1786cd742fbdad78376c3"
    },
    {
      "type": "Feature",
      "properties": {
        "Street Number": "4",
        "Street Name": "Lake Manchester",
        "Street Type": "ST",
        "Suburb": "LOGAN RESERVE",
        "Postcode": "4133",
        "State": "QLD",
        "Full Address": "4 Lake Manchester ST LOGAN RESERVE 4133 QLD "
      },
      "geometry": {
        "coordinates": [
          153.111519,
          -27.695671
        ],
        "type": "Point"
      },
      "id": "193d4d035128cf8b8fb72bc2763b30b5"
    },
    {
      "type": "Feature",
      "properties": {
        "Street Number": "",
        "Street Name": "EAST & REBECCA",
        "Street Type": "ST",
        "Suburb": "MORNINGTON",
        "Postcode": "4825",
        "State": "QLD",
        "Full Address": " EAST & REBECCA ST MORNINGTON 4825 QLD "
      },
      "geometry": {
        "coordinates": [
          139.500752,
          -20.734998
        ],
        "type": "Point"
      },
      "id": "19bd9c08006c7824e94a6c85deada645"
    },
    {
      "type": "Feature",
      "properties": {
        "Street Number": "14",
        "Street Name": "Banyula",
        "Street Type": "DR",
        "Suburb": "NERANG",
        "Postcode": "4211",
        "State": "QLD",
        "Full Address": "14 Banyula DR NERANG 4211 QLD "
      },
      "geometry": {
        "coordinates": [
          153.344471,
          -27.975549
        ],
        "type": "Point"
      },
      "id": "19ccd46c91bdf3321af683a3b31c111e"
    },
    {
      "type": "Feature",
      "properties": {
        "Street Number": "",
        "Street Name": "Sandgate & Whytecliffe",
        "Street Type": "ST",
        "Suburb": "ALBION",
        "Postcode": "4010",
        "State": "QLD",
        "Full Address": " Sandgate & Whytecliffe ST ALBION 4010 QLD "
      },
      "geometry": {
        "coordinates": [
          153.045284,
          -27.428009
        ],
        "type": "Point"
      },
      "id": "19d404345eb64a83465634fbf1b7731b"
    },
    {
      "type": "Feature",
      "properties": {
        "Street Number": "6",
        "Street Name": "Delmar",
        "Street Type": "ST",
        "Suburb": "DECEPTION BAY",
        "Postcode": "4022",
        "State": "QLD",
        "Full Address": "6 Delmar ST DECEPTION BAY 4022 QLD "
      },
      "geometry": {
        "coordinates": [
          153.042974,
          -27.203217
        ],
        "type": "Point"
      },
      "id": "19f301f10edd4d908dcaa3ca8ccbee3c"
    },
    {
      "type": "Feature",
      "properties": {
        "Street Number": "2744",
        "Street Name": "Boonah Rathdowney",
        "Street Type": "RD",
        "Suburb": "MAROON",
        "Postcode": "4310",
        "State": "QLD",
        "Full Address": "2744 Boonah Rathdowney RD MAROON 4310 QLD "
      },
      "geometry": {
        "coordinates": [
          152.710264,
          -28.17142
        ],
        "type": "Point"
      },
      "id": "1a0b16597375439cc78dfbb0d6bff8d9"
    },
    {
      "type": "Feature",
      "properties": {
        "Street Number": "20",
        "Street Name": "SPRINGFIELD",
        "Street Type": "DR",
        "Suburb": "BURPENGARY",
        "Postcode": "4505",
        "State": "QLD",
        "Full Address": "20 SPRINGFIELD DR BURPENGARY 4505 QLD "
      },
      "geometry": {
        "coordinates": [
          152.96406,
          -27.152979
        ],
        "type": "Point"
      },
      "id": "1a740709c1346268541e0b87cb307bd8"
    },
    {
      "type": "Feature",
      "properties": {
        "Street Number": "",
        "Street Name": "Capricorn",
        "Street Type": "HWY",
        "Suburb": "DUARINGA",
        "Postcode": "4712",
        "State": "QLD",
        "Full Address": " Capricorn HWY DUARINGA 4712 QLD "
      },
      "geometry": {
        "coordinates": [
          149.67557,
          -23.735923
        ],
        "type": "Point"
      },
      "id": "1aaa4348499edc71bc08efedf09cecc4"
    },
    {
      "type": "Feature",
      "properties": {
        "Street Number": "",
        "Street Name": "ARTHUR & CANBERRA",
        "Street Type": "TCE",
        "Suburb": "KINGS BEACH",
        "Postcode": "4551",
        "State": "QLD",
        "Full Address": " ARTHUR & CANBERRA TCE KINGS BEACH 4551 QLD "
      },
      "geometry": {
        "coordinates": [
          153.13723,
          -26.800957
        ],
        "type": "Point"
      },
      "id": "1addda031f0e8e92d780da460ed3cd08"
    },
    {
      "type": "Feature",
      "properties": {
        "Street Number": "",
        "Street Name": "Warrigal & Daw",
        "Street Type": "RD",
        "Suburb": "RUNCORN",
        "Postcode": "4113",
        "State": "QLD",
        "Full Address": " Warrigal & Daw RD RUNCORN 4113 QLD "
      },
      "geometry": {
        "coordinates": [
          153.085264,
          -27.588273
        ],
        "type": "Point"
      },
      "id": "1ae7c911e6943e53484eae463ac762be"
    },
    {
      "type": "Feature",
      "properties": {
        "Street Number": "1月5日",
        "Street Name": "LEICHHARDT",
        "Street Type": "DR",
        "Suburb": "MORANBAH",
        "Postcode": "4744",
        "State": "QLD",
        "Full Address": "Sat Jan 04 2020 15:00:00 GMT+0100 (CET) LEICHHARDT DR MORANBAH 4744 QLD "
      },
      "geometry": {
        "coordinates": [
          148.042314,
          -21.996197
        ],
        "type": "Point"
      },
      "id": "1b63affbd01ca0005be25c9e15b67065"
    },
    {
      "type": "Feature",
      "properties": {
        "Street Number": "",
        "Street Name": "Compton & Ewing",
        "Street Type": "RD",
        "Suburb": "UNDERWOOD",
        "Postcode": "4119",
        "State": "QLD",
        "Full Address": " Compton & Ewing RD UNDERWOOD 4119 QLD "
      },
      "geometry": {
        "coordinates": [
          153.111176,
          -27.619449
        ],
        "type": "Point"
      },
      "id": "1ba8f646584f8e9e3f6f41b4b22b782f"
    },
    {
      "type": "Feature",
      "properties": {
        "Street Number": "",
        "Street Name": "Qantas & Lomandra",
        "Street Type": "DR",
        "Suburb": "BRISBANE AIRPORT",
        "Postcode": "4008",
        "State": "QLD",
        "Full Address": " Qantas & Lomandra DR BRISBANE AIRPORT 4008 QLD "
      },
      "geometry": {
        "coordinates": [
          153.090481,
          -27.415463
        ],
        "type": "Point"
      },
      "id": "1bf0594eb51b31e58f95cebfc20f3663"
    },
    {
      "type": "Feature",
      "properties": {
        "Street Number": "2",
        "Street Name": "Kingsford Smith",
        "Street Type": "DR",
        "Suburb": "ALBION",
        "Postcode": "4010",
        "State": "QLD",
        "Full Address": "2 Kingsford Smith DR ALBION 4010 QLD "
      },
      "geometry": {
        "coordinates": [
          153.045757,
          -27.440618
        ],
        "type": "Point"
      },
      "id": "1c107a104b1660edb6a5f487763bb96c"
    },
    {
      "type": "Feature",
      "properties": {
        "Street Number": "152",
        "Street Name": "Buckland",
        "Street Type": "RD",
        "Suburb": "NUNDAH",
        "Postcode": "4012",
        "State": "QLD",
        "Full Address": "152 Buckland RD NUNDAH 4012 QLD "
      },
      "geometry": {
        "coordinates": [
          153.057371,
          -27.403326
        ],
        "type": "Point"
      },
      "id": "1c2a4e0af212e63fe96b373db290ff9c"
    },
    {
      "type": "Feature",
      "properties": {
        "Street Number": "23",
        "Street Name": "Watchman",
        "Street Type": "RD",
        "Suburb": "PEERAMON",
        "Postcode": "4885",
        "State": "QLD",
        "Full Address": "23 Watchman RD PEERAMON 4885 QLD "
      },
      "geometry": {
        "coordinates": [
          145.619385,
          -17.329034
        ],
        "type": "Point"
      },
      "id": "1cdd3dad87ce7d54ea227611a94da329"
    },
    {
      "type": "Feature",
      "properties": {
        "Street Number": "1204-1206",
        "Street Name": "Tamborine Oxenford",
        "Street Type": "RD",
        "Suburb": "WONGAWALLAN",
        "Postcode": "4210",
        "State": "QLD",
        "Full Address": "1204-1206 Tamborine Oxenford RD WONGAWALLAN 4210 QLD "
      },
      "geometry": {
        "coordinates": [
          153.227914,
          -27.872141
        ],
        "type": "Point"
      },
      "id": "1d0c4471fca648093bd2f8647d9b018c"
    },
    {
      "type": "Feature",
      "properties": {
        "Street Number": "170",
        "Street Name": "HENTY",
        "Street Type": "DR",
        "Suburb": "REDBANK PLAINS",
        "Postcode": "4301",
        "State": "QLD",
        "Full Address": "170 HENTY DR REDBANK PLAINS 4301 QLD "
      },
      "geometry": {
        "coordinates": [
          152.863483,
          -27.634952
        ],
        "type": "Point"
      },
      "id": "1d305673710844622dc46dd60148f229"
    },
    {
      "type": "Feature",
      "properties": {
        "Street Number": "105",
        "Street Name": "Raleigh",
        "Street Type": "RD",
        "Suburb": "DIMBULAH",
        "Postcode": "4872",
        "State": "QLD",
        "Full Address": "105 Raleigh RD DIMBULAH 4872 QLD "
      },
      "geometry": {
        "coordinates": [
          145.116982,
          -17.140066
        ],
        "type": "Point"
      },
      "id": "1d68c141b8e48965abf55b456c69fcda"
    },
    {
      "type": "Feature",
      "properties": {
        "Street Number": "",
        "Street Name": "LOGAN RESERVE & MUCHOW",
        "Street Type": "RD",
        "Suburb": "WATERFORD WEST",
        "Postcode": "4133",
        "State": "QLD",
        "Full Address": " LOGAN RESERVE & MUCHOW RD WATERFORD WEST 4133 QLD "
      },
      "geometry": {
        "coordinates": [
          153.116383,
          -27.685463
        ],
        "type": "Point"
      },
      "id": "1dacf9821db284c6d34f330478929cce"
    },
    {
      "type": "Feature",
      "properties": {
        "Street Number": "",
        "Street Name": "Beaudesert & Nottingham",
        "Street Type": "RD",
        "Suburb": "CALAMVALE",
        "Postcode": "4116",
        "State": "QLD",
        "Full Address": " Beaudesert & Nottingham RD CALAMVALE 4116 QLD "
      },
      "geometry": {
        "coordinates": [
          153.046511,
          -27.63031
        ],
        "type": "Point"
      },
      "id": "1db31c0d89239fc25803ec7cb6672317"
    },
    {
      "type": "Feature",
      "properties": {
        "Street Number": "",
        "Street Name": "BROUGHTON & ROCK",
        "Street Type": "RD",
        "Suburb": "BROUGHTON",
        "Postcode": "4820",
        "State": "QLD",
        "Full Address": " BROUGHTON & ROCK RD BROUGHTON 4820 QLD "
      },
      "geometry": {
        "coordinates": [
          146.390234,
          -20.105122
        ],
        "type": "Point"
      },
      "id": "1e1c2678fbf216a8f29e229f3447a55b"
    },
    {
      "type": "Feature",
      "properties": {
        "Street Number": "119",
        "Street Name": "Werin",
        "Street Type": "ST",
        "Suburb": "TEWANTIN",
        "Postcode": "4565",
        "State": "QLD",
        "Full Address": "119 Werin ST TEWANTIN 4565 QLD "
      },
      "geometry": {
        "coordinates": [
          153.034108,
          -26.383836
        ],
        "type": "Point"
      },
      "id": "1e56efea1427e6f325de4c0d4195ecad"
    },
    {
      "type": "Feature",
      "properties": {
        "Street Number": "",
        "Street Name": "HOPE ISLAND & MAGNOLIA",
        "Street Type": "DR",
        "Suburb": "HOPE ISLAND",
        "Postcode": "4212",
        "State": "QLD",
        "Full Address": " HOPE ISLAND & MAGNOLIA DR HOPE ISLAND 4212 QLD "
      },
      "geometry": {
        "coordinates": [
          153.339593,
          -27.877508
        ],
        "type": "Point"
      },
      "id": "1e5e482ecac0b406ea6734e696304f9a"
    },
    {
      "type": "Feature",
      "properties": {
        "Street Number": "840",
        "Street Name": "MARAJU YAKAPARI",
        "Street Type": "RD",
        "Suburb": "DUMBLETON",
        "Postcode": "4740",
        "State": "QLD",
        "Full Address": "840 MARAJU YAKAPARI RD DUMBLETON 4740 QLD "
      },
      "geometry": {
        "coordinates": [
          149.078011,
          -21.129701
        ],
        "type": "Point"
      },
      "id": "1e713102e67a877ac3d7d08e701aff93"
    },
    {
      "type": "Feature",
      "properties": {
        "Street Number": "",
        "Street Name": "BANKSIA & FOREST LAKE",
        "Street Type": "BVD",
        "Suburb": "FOREST LAKE",
        "Postcode": "4078",
        "State": "QLD",
        "Full Address": " BANKSIA & FOREST LAKE BVD FOREST LAKE 4078 QLD "
      },
      "geometry": {
        "coordinates": [
          152.964213,
          -27.613336
        ],
        "type": "Point"
      },
      "id": "1ebc69a48bdef261e5dea4237b647f7b"
    },
    {
      "type": "Feature",
      "properties": {
        "Street Number": "10667",
        "Street Name": "Mount Lindesay",
        "Street Type": "HWY",
        "Suburb": "PALEN CREEK",
        "Postcode": "4287",
        "State": "QLD",
        "Full Address": "10667 Mount Lindesay HWY PALEN CREEK 4287 QLD "
      },
      "geometry": {
        "coordinates": [
          152.866397,
          -28.232802
        ],
        "type": "Point"
      },
      "id": "1ecad4b76104524da39db2b55ad91a9f"
    },
    {
      "type": "Feature",
      "properties": {
        "Street Number": "2",
        "Street Name": "Thrower",
        "Street Type": "DR",
        "Suburb": "CURRUMBIN",
        "Postcode": "4223",
        "State": "QLD",
        "Full Address": "2 Thrower DR CURRUMBIN 4223 QLD "
      },
      "geometry": {
        "coordinates": [
          153.476502,
          -28.136769
        ],
        "type": "Point"
      },
      "id": "1edf20f45f11afe776872fddb68dee78"
    },
    {
      "type": "Feature",
      "properties": {
        "Street Number": "",
        "Street Name": "Gateway Motorway On & Nudgee",
        "Street Type": "RD",
        "Suburb": "NUDGEE",
        "Postcode": "4014",
        "State": "QLD",
        "Full Address": " Gateway Motorway On & Nudgee RD NUDGEE 4014 QLD "
      },
      "geometry": {
        "coordinates": [
          153.093638,
          -27.377368
        ],
        "type": "Point"
      },
      "id": "1ee32da332e6a16536147155a562e01e"
    },
    {
      "type": "Feature",
      "properties": {
        "Street Number": "",
        "Street Name": "Logan",
        "Street Type": "MWY",
        "Suburb": "DREWVALE",
        "Postcode": "4116",
        "State": "QLD",
        "Full Address": " Logan MWY DREWVALE 4116 QLD "
      },
      "geometry": {
        "coordinates": [
          153.055545,
          -27.648362
        ],
        "type": "Point"
      },
      "id": "1f01bde036a6d8d1ecd2e63e5b603cf2"
    },
    {
      "type": "Feature",
      "properties": {
        "Street Number": "",
        "Street Name": "MAPLETON & DULONG",
        "Street Type": "RD",
        "Suburb": "DULONG",
        "Postcode": "4560",
        "State": "QLD",
        "Full Address": " MAPLETON & DULONG RD DULONG 4560 QLD "
      },
      "geometry": {
        "coordinates": [
          152.909747,
          -26.624136
        ],
        "type": "Point"
      },
      "id": "1faf97c0ad117d3f135d7da71a46caae"
    },
    {
      "type": "Feature",
      "properties": {
        "Street Number": "185",
        "Street Name": "MALCOMSON",
        "Street Type": "ST",
        "Suburb": "MOUNT PLEASANT",
        "Postcode": "4740",
        "State": "QLD",
        "Full Address": "185 MALCOMSON ST MOUNT PLEASANT 4740 QLD "
      },
      "geometry": {
        "coordinates": [
          149.161199,
          -21.120901
        ],
        "type": "Point"
      },
      "id": "1fc7951661d41a6b14f91f91ce8b222d"
    },
    {
      "type": "Feature",
      "properties": {
        "Street Number": "17",
        "Street Name": "CINDERELLA",
        "Street Type": "DR",
        "Suburb": "SPRINGWOOD",
        "Postcode": "4127",
        "State": "QLD",
        "Full Address": "17 CINDERELLA DR SPRINGWOOD 4127 QLD "
      },
      "geometry": {
        "coordinates": [
          153.124589,
          -27.6123
        ],
        "type": "Point"
      },
      "id": "1fc7aaf508f44447e736f5047674c21b"
    },
    {
      "type": "Feature",
      "properties": {
        "Street Number": "",
        "Street Name": "Cadogan & Bedivere",
        "Street Type": "ST",
        "Suburb": "CARINDALE",
        "Postcode": "4152",
        "State": "QLD",
        "Full Address": " Cadogan & Bedivere ST CARINDALE 4152 QLD "
      },
      "geometry": {
        "coordinates": [
          153.107727,
          -27.496128
        ],
        "type": "Point"
      },
      "id": "1feef68134fc2c9f0f338ee1e4636abd"
    },
    {
      "type": "Feature",
      "properties": {
        "Street Number": "900",
        "Street Name": "Yaamba",
        "Street Type": "RD",
        "Suburb": "PARKHURST",
        "Postcode": "4702",
        "State": "QLD",
        "Full Address": "900 Yaamba RD PARKHURST 4702 QLD "
      },
      "geometry": {
        "coordinates": [
          150.514601,
          -23.296947
        ],
        "type": "Point"
      },
      "id": "2029c1163b33e6d18a9b8fda68f04d90"
    },
    {
      "type": "Feature",
      "properties": {
        "Street Number": "33",
        "Street Name": "Kavanagh",
        "Street Type": "RD",
        "Suburb": "MOUNT TARAMPA",
        "Postcode": "4311",
        "State": "QLD",
        "Full Address": "33 Kavanagh RD MOUNT TARAMPA 4311 QLD "
      },
      "geometry": {
        "coordinates": [
          152.482725,
          -27.46908
        ],
        "type": "Point"
      },
      "id": "203db50b802a8e2476a8f26f2b6b75e2"
    },
    {
      "type": "Feature",
      "properties": {
        "Street Number": "8",
        "Street Name": "Longlands",
        "Street Type": "RD",
        "Suburb": "HERBERTON",
        "Postcode": "4887",
        "State": "QLD",
        "Full Address": "8 Longlands RD HERBERTON 4887 QLD "
      },
      "geometry": {
        "coordinates": [
          145.428816,
          -17.434639
        ],
        "type": "Point"
      },
      "id": "204b9c4714275c6a691ff339d58d6463"
    },
    {
      "type": "Feature",
      "properties": {
        "Street Number": "",
        "Street Name": "Melbourne & Hope",
        "Street Type": "ST",
        "Suburb": "SOUTH BRISBANE",
        "Postcode": "4101",
        "State": "QLD",
        "Full Address": " Melbourne & Hope ST SOUTH BRISBANE 4101 QLD "
      },
      "geometry": {
        "coordinates": [
          153.015869,
          -27.471943
        ],
        "type": "Point"
      },
      "id": "205e422cce4f5941cb8d4ebedf37c522"
    },
    {
      "type": "Feature",
      "properties": {
        "Street Number": "446",
        "Street Name": "MAIN",
        "Street Type": "ST",
        "Suburb": "KANGAROO POINT",
        "Postcode": "4169",
        "State": "QLD",
        "Full Address": "446 MAIN ST KANGAROO POINT 4169 QLD "
      },
      "geometry": {
        "coordinates": [
          153.036017,
          -27.475337
        ],
        "type": "Point"
      },
      "id": "2080d32688351bee0d564687d4b04487"
    },
    {
      "type": "Feature",
      "properties": {
        "Street Number": "39",
        "Street Name": "Goicoechea",
        "Street Type": "DR",
        "Suburb": "BUSHLAND BEACH",
        "Postcode": "4818",
        "State": "QLD",
        "Full Address": "39 Goicoechea DR BUSHLAND BEACH 4818 QLD "
      },
      "geometry": {
        "coordinates": [
          146.669207,
          -19.203115
        ],
        "type": "Point"
      },
      "id": "212ad877ae323e295a502c06193c5338"
    },
    {
      "type": "Feature",
      "properties": {
        "Street Number": "",
        "Street Name": "KENNEDY & EYRE",
        "Street Type": "ST",
        "Suburb": "NORTH WARD",
        "Postcode": "4810",
        "State": "QLD",
        "Full Address": " KENNEDY & EYRE ST NORTH WARD 4810 QLD "
      },
      "geometry": {
        "coordinates": [
          146.811593,
          -19.25002
        ],
        "type": "Point"
      },
      "id": "21682a5fcff467028deb304ace263b36"
    },
    {
      "type": "Feature",
      "properties": {
        "Street Number": "49",
        "Street Name": "Blacks Beach",
        "Street Type": "RD",
        "Suburb": "BLACKS BEACH",
        "Postcode": "4740",
        "State": "QLD",
        "Full Address": "49 Blacks Beach RD BLACKS BEACH 4740 QLD "
      },
      "geometry": {
        "coordinates": [
          149.187593,
          -21.054512
        ],
        "type": "Point"
      },
      "id": "219907c99e15b91f51867405d70ab84d"
    },
    {
      "type": "Feature",
      "properties": {
        "Street Number": "",
        "Street Name": "CREEK & CREEK ROAD EXIT",
        "Street Type": "RD",
        "Suburb": "MOUNT GRAVATT EAST",
        "Postcode": "4122",
        "State": "QLD",
        "Full Address": " CREEK & CREEK ROAD EXIT RD MOUNT GRAVATT EAST 4122 QLD "
      },
      "geometry": {
        "coordinates": [
          153.082774,
          -27.53885
        ],
        "type": "Point"
      },
      "id": "2199ace4ae1ba8e581e39da7c994c02f"
    },
    {
      "type": "Feature",
      "properties": {
        "Street Number": "0",
        "Street Name": "Taylor",
        "Street Type": "ST",
        "Suburb": "NEWTOWN",
        "Postcode": "4350",
        "State": "QLD",
        "Full Address": "0 Taylor ST NEWTOWN 4350 QLD "
      },
      "geometry": {
        "coordinates": [
          151.930186,
          -27.553977
        ],
        "type": "Point"
      },
      "id": "21a35828eb48c22e131471dd7de79ec1"
    },
    {
      "type": "Feature",
      "properties": {
        "Street Number": "",
        "Street Name": "Old Stanthorpe",
        "Street Type": "RD",
        "Suburb": "MORGAN PARK",
        "Postcode": "4370",
        "State": "QLD",
        "Full Address": " Old Stanthorpe RD MORGAN PARK 4370 QLD "
      },
      "geometry": {
        "coordinates": [
          152.049505,
          -28.257875
        ],
        "type": "Point"
      },
      "id": "21ae34bfd434b853af3b3543faef3b1f"
    },
    {
      "type": "Feature",
      "properties": {
        "Street Number": "12",
        "Street Name": "Ascog",
        "Street Type": "TCE",
        "Suburb": "TOOWONG",
        "Postcode": "4066",
        "State": "QLD",
        "Full Address": "12 Ascog TCE TOOWONG 4066 QLD "
      },
      "geometry": {
        "coordinates": [
          152.990156,
          -27.482889
        ],
        "type": "Point"
      },
      "id": "21c5e87a61b6e848444ece4f5e0303f4"
    },
    {
      "type": "Feature",
      "properties": {
        "Street Number": "0",
        "Street Name": "Rochedale Road Off",
        "Street Type": "RAMP",
        "Suburb": "SPRINGWOOD",
        "Postcode": "4127",
        "State": "QLD",
        "Full Address": "0 Rochedale Road Off RAMP SPRINGWOOD 4127 QLD "
      },
      "geometry": {
        "coordinates": [
          153.122771,
          -27.611471
        ],
        "type": "Point"
      },
      "id": "222ce2a2df8d8ea2816097fec37d2c6c"
    },
    {
      "type": "Feature",
      "properties": {
        "Street Number": "",
        "Street Name": "Thynne & Bennetts",
        "Street Type": "RD",
        "Suburb": "NORMAN PARK",
        "Postcode": "4170",
        "State": "QLD",
        "Full Address": " Thynne & Bennetts RD NORMAN PARK 4170 QLD "
      },
      "geometry": {
        "coordinates": [
          153.065063,
          -27.481419
        ],
        "type": "Point"
      },
      "id": "228b4c753e2ce4c25a836e62e413c127"
    },
    {
      "type": "Feature",
      "properties": {
        "Street Number": "",
        "Street Name": "NEW ENGLAND & CAMBOOYA CONNECTION",
        "Street Type": "RD",
        "Suburb": "CAMBOOYA",
        "Postcode": "4358",
        "State": "QLD",
        "Full Address": " NEW ENGLAND & CAMBOOYA CONNECTION RD CAMBOOYA 4358 QLD "
      },
      "geometry": {
        "coordinates": [
          151.911509,
          -27.717673
        ],
        "type": "Point"
      },
      "id": "22c749c5a6da904f1da528b7831f358b"
    },
    {
      "type": "Feature",
      "properties": {
        "Street Number": "",
        "Street Name": "Berserker & Elphinstone",
        "Street Type": "ST",
        "Suburb": "BERSERKER",
        "Postcode": "4701",
        "State": "QLD",
        "Full Address": " Berserker & Elphinstone ST BERSERKER 4701 QLD "
      },
      "geometry": {
        "coordinates": [
          150.529823,
          -23.363786
        ],
        "type": "Point"
      },
      "id": "22cb1a7ab4b81649afa8dfea0035c9e4"
    },
    {
      "type": "Feature",
      "properties": {
        "Street Number": "94",
        "Street Name": "Frank",
        "Street Type": "ST",
        "Suburb": "LABRADOR",
        "Postcode": "4215",
        "State": "QLD",
        "Full Address": "94 Frank ST LABRADOR 4215 QLD "
      },
      "geometry": {
        "coordinates": [
          153.408375,
          -27.94789
        ],
        "type": "Point"
      },
      "id": "2339baf8949704a1e8742c037028414a"
    },
    {
      "type": "Feature",
      "properties": {
        "Street Number": "0",
        "Street Name": "Hope Island Off",
        "Street Type": "RAMP",
        "Suburb": "OXENFORD",
        "Postcode": "4210",
        "State": "QLD",
        "Full Address": "0 Hope Island Off RAMP OXENFORD 4210 QLD "
      },
      "geometry": {
        "coordinates": [
          153.322831,
          -27.883622
        ],
        "type": "Point"
      },
      "id": "23b9de2752101af21bc7724086247be2"
    },
    {
      "type": "Feature",
      "properties": {
        "Street Number": "",
        "Street Name": "MOGGILL & HARRYS",
        "Street Type": "RD",
        "Suburb": "TARINGA",
        "Postcode": "4068",
        "State": "QLD",
        "Full Address": " MOGGILL & HARRYS RD TARINGA 4068 QLD "
      },
      "geometry": {
        "coordinates": [
          152.981776,
          -27.49169
        ],
        "type": "Point"
      },
      "id": "248983b112ab30633fb77dbd82eca60b"
    },
    {
      "type": "Feature",
      "properties": {
        "Street Number": "",
        "Street Name": "Milton & Hale Street Exit",
        "Street Type": "RD",
        "Suburb": "MILTON",
        "Postcode": "4000",
        "State": "QLD",
        "Full Address": " Milton & Hale Street Exit RD MILTON 4000 QLD "
      },
      "geometry": {
        "coordinates": [
          153.011596,
          -27.462809
        ],
        "type": "Point"
      },
      "id": "24ccec5c4db426a064fc8b73c8c3b13b"
    },
    {
      "type": "Feature",
      "properties": {
        "Street Number": "",
        "Street Name": "PACIFIC",
        "Street Type": "MWY",
        "Suburb": "MOLENDINAR",
        "Postcode": "4214",
        "State": "QLD",
        "Full Address": " PACIFIC MWY MOLENDINAR 4214 QLD "
      },
      "geometry": {
        "coordinates": [
          153.345796,
          -27.974869
        ],
        "type": "Point"
      },
      "id": "24f36694b5630feed2380174b96dc5c0"
    },
    {
      "type": "Feature",
      "properties": {
        "Street Number": "",
        "Street Name": "GARDINER & SAMFORD",
        "Street Type": "RD",
        "Suburb": "ALDERLEY",
        "Postcode": "4051",
        "State": "QLD",
        "Full Address": " GARDINER & SAMFORD RD ALDERLEY 4051 QLD "
      },
      "geometry": {
        "coordinates": [
          152.997206,
          -27.423878
        ],
        "type": "Point"
      },
      "id": "2575eb5fb1f81cd0a100b75b752d8f3f"
    },
    {
      "type": "Feature",
      "properties": {
        "Street Number": "",
        "Street Name": "SUNSHINE",
        "Street Type": "MWY",
        "Suburb": "SIPPY DOWNS",
        "Postcode": "4556",
        "State": "QLD",
        "Full Address": " SUNSHINE MWY SIPPY DOWNS 4556 QLD "
      },
      "geometry": {
        "coordinates": [
          153.072886,
          -26.712048
        ],
        "type": "Point"
      },
      "id": "258becb393256845fe96798f2f38e0ee"
    },
    {
      "type": "Feature",
      "properties": {
        "Street Number": "",
        "Street Name": "Philips",
        "Street Type": "RD",
        "Suburb": "PINE CREEK",
        "Postcode": "4670",
        "State": "QLD",
        "Full Address": " Philips RD PINE CREEK 4670 QLD "
      },
      "geometry": {
        "coordinates": [
          152.18515,
          -25.036781
        ],
        "type": "Point"
      },
      "id": "25a6a30fd7a634ebe2cbf8c80e1250df"
    },
    {
      "type": "Feature",
      "properties": {
        "Street Number": "12",
        "Street Name": "Sun Valley",
        "Street Type": "RD",
        "Suburb": "SUN VALLEY",
        "Postcode": "4680",
        "State": "QLD",
        "Full Address": "12 Sun Valley RD SUN VALLEY 4680 QLD "
      },
      "geometry": {
        "coordinates": [
          151.258904,
          -23.876886
        ],
        "type": "Point"
      },
      "id": "26f5657aa2d2bcff5e4e893e10343129"
    },
    {
      "type": "Feature",
      "properties": {
        "Street Number": "",
        "Street Name": "Teviot & Greenbank",
        "Street Type": "RD",
        "Suburb": "GREENBANK",
        "Postcode": "4124",
        "State": "QLD",
        "Full Address": " Teviot & Greenbank RD GREENBANK 4124 QLD "
      },
      "geometry": {
        "coordinates": [
          152.985353,
          -27.743737
        ],
        "type": "Point"
      },
      "id": "26f7d90b9c2df538f36de967f132e193"
    },
    {
      "type": "Feature",
      "properties": {
        "Street Number": "",
        "Street Name": "BRISBANE & POWELL",
        "Street Type": "ST",
        "Suburb": "BOWEN",
        "Postcode": "4805",
        "State": "QLD",
        "Full Address": " BRISBANE & POWELL ST BOWEN 4805 QLD "
      },
      "geometry": {
        "coordinates": [
          148.248293,
          -20.010912
        ],
        "type": "Point"
      },
      "id": "271888a8968f5723629b9e65073936a7"
    },
    {
      "type": "Feature",
      "properties": {
        "Street Number": "",
        "Street Name": "STAFFORD & APPLEBY",
        "Street Type": "RD",
        "Suburb": "STAFFORD",
        "Postcode": "4053",
        "State": "QLD",
        "Full Address": " STAFFORD & APPLEBY RD STAFFORD 4053 QLD "
      },
      "geometry": {
        "coordinates": [
          153.007763,
          -27.409231
        ],
        "type": "Point"
      },
      "id": "2748bae7157b9a2d8cd356192fae3788"
    },
    {
      "type": "Feature",
      "properties": {
        "Street Number": "",
        "Street Name": "Mulligan",
        "Street Type": "HWY",
        "Suburb": "LAKELAND",
        "Postcode": "4871",
        "State": "QLD",
        "Full Address": " Mulligan HWY LAKELAND 4871 QLD "
      },
      "geometry": {
        "coordinates": [
          144.837817,
          -15.970074
        ],
        "type": "Point"
      },
      "id": "28b57ccf9b1d1fb47f7409fe43de0c1b"
    },
    {
      "type": "Feature",
      "properties": {
        "Street Number": "43",
        "Street Name": "Yangoora",
        "Street Type": "CRES",
        "Suburb": "ASHMORE",
        "Postcode": "4214",
        "State": "QLD",
        "Full Address": "43 Yangoora CRES ASHMORE 4214 QLD "
      },
      "geometry": {
        "coordinates": [
          153.379286,
          -27.99213
        ],
        "type": "Point"
      },
      "id": "291f0bf5ab6e7307f254821f6b9a22a0"
    },
    {
      "type": "Feature",
      "properties": {
        "Street Number": "",
        "Street Name": "Glenella Connection",
        "Street Type": "RD",
        "Suburb": "FOULDEN",
        "Postcode": "4740",
        "State": "QLD",
        "Full Address": " Glenella Connection RD FOULDEN 4740 QLD "
      },
      "geometry": {
        "coordinates": [
          149.147583,
          -21.137433
        ],
        "type": "Point"
      },
      "id": "295d0da72f1d287bfa5b64b30ae99306"
    },
    {
      "type": "Feature",
      "properties": {
        "Street Number": "1323",
        "Street Name": "Logan",
        "Street Type": "RD",
        "Suburb": "MOUNT GRAVATT",
        "Postcode": "4122",
        "State": "QLD",
        "Full Address": "1323 Logan RD MOUNT GRAVATT 4122 QLD "
      },
      "geometry": {
        "coordinates": [
          153.07568,
          -27.534904
        ],
        "type": "Point"
      },
      "id": "298de4d48592a1a8c6928c05a147a4d3"
    },
    {
      "type": "Feature",
      "properties": {
        "Street Number": "264",
        "Street Name": "HENTY",
        "Street Type": "DR",
        "Suburb": "REDBANK PLAINS",
        "Postcode": "4301",
        "State": "QLD",
        "Full Address": "264 HENTY DR REDBANK PLAINS 4301 QLD "
      },
      "geometry": {
        "coordinates": [
          152.865413,
          -27.643777
        ],
        "type": "Point"
      },
      "id": "299e41f94cfa15995de9cf85a5d13dcf"
    },
    {
      "type": "Feature",
      "properties": {
        "Street Number": "",
        "Street Name": "Flinders",
        "Street Type": "HWY",
        "Suburb": "PENTLAND",
        "Postcode": "4816",
        "State": "QLD",
        "Full Address": " Flinders HWY PENTLAND 4816 QLD "
      },
      "geometry": {
        "coordinates": [
          145.366984,
          -20.553344
        ],
        "type": "Point"
      },
      "id": "2ac3d7cc23d13fd67d5519cb5f04e821"
    },
    {
      "type": "Feature",
      "properties": {
        "Street Number": "",
        "Street Name": "BRUCE",
        "Street Type": "HWY",
        "Suburb": "FARLEIGH",
        "Postcode": "4741",
        "State": "QLD",
        "Full Address": " BRUCE HWY FARLEIGH 4741 QLD "
      },
      "geometry": {
        "coordinates": [
          149.090439,
          -21.10202
        ],
        "type": "Point"
      },
      "id": "2b24bc960e1abbf27a63ca4d2c16b66d"
    },
    {
      "type": "Feature",
      "properties": {
        "Street Number": "",
        "Street Name": "Russell & Edmund",
        "Street Type": "ST",
        "Suburb": "SHELLY BEACH",
        "Postcode": "4551",
        "State": "QLD",
        "Full Address": " Russell & Edmund ST SHELLY BEACH 4551 QLD "
      },
      "geometry": {
        "coordinates": [
          153.143139,
          -26.79244
        ],
        "type": "Point"
      },
      "id": "2b3a74c192919d80380353db40a8bedf"
    },
    {
      "type": "Feature",
      "properties": {
        "Street Number": "",
        "Street Name": "Longlands & Rolley",
        "Street Type": "RD",
        "Suburb": "WONDECLA",
        "Postcode": "4887",
        "State": "QLD",
        "Full Address": " Longlands & Rolley RD WONDECLA 4887 QLD "
      },
      "geometry": {
        "coordinates": [
          145.407698,
          -17.406126
        ],
        "type": "Point"
      },
      "id": "2b5866f26c8e064c5092a03411db5da9"
    },
    {
      "type": "Feature",
      "properties": {
        "Street Number": "7172",
        "Street Name": "BRUCE",
        "Street Type": "HWY",
        "Suburb": "FOREST GLEN",
        "Postcode": "4556",
        "State": "QLD",
        "Full Address": "7172 BRUCE HWY FOREST GLEN 4556 QLD "
      },
      "geometry": {
        "coordinates": [
          153.003812,
          -26.682861
        ],
        "type": "Point"
      },
      "id": "2ba3f62b9a0b95d1747a459a0b89b427"
    },
    {
      "type": "Feature",
      "properties": {
        "Street Number": "21459",
        "Street Name": "New England",
        "Street Type": "HWY",
        "Suburb": "DALVEEN",
        "Postcode": "4374",
        "State": "QLD",
        "Full Address": "21459 New England HWY DALVEEN 4374 QLD "
      },
      "geometry": {
        "coordinates": [
          151.917204,
          -28.401145
        ],
        "type": "Point"
      },
      "id": "2ba8829912a2a8a24acb20bddfa6b0f1"
    },
    {
      "type": "Feature",
      "properties": {
        "Street Number": "",
        "Street Name": "Pacific",
        "Street Type": "MWY",
        "Suburb": "EAGLEBY",
        "Postcode": "4207",
        "State": "QLD",
        "Full Address": " Pacific MWY EAGLEBY 4207 QLD "
      },
      "geometry": {
        "coordinates": [
          153.255478,
          -27.784962
        ],
        "type": "Point"
      },
      "id": "2bb6f2b62f35bb82272945f27c1511bb"
    },
    {
      "type": "Feature",
      "properties": {
        "Street Number": "",
        "Street Name": "NORTHBROOK",
        "Street Type": "PKWY",
        "Suburb": "DUNDAS",
        "Postcode": "4306",
        "State": "QLD",
        "Full Address": " NORTHBROOK PKWY DUNDAS 4306 QLD "
      },
      "geometry": {
        "coordinates": [
          152.674401,
          -27.303089
        ],
        "type": "Point"
      },
      "id": "2bd2b61403c4a0e4cca91a36512f01e5"
    },
    {
      "type": "Feature",
      "properties": {
        "Street Number": "",
        "Street Name": "IPSWICH",
        "Street Type": "MWY",
        "Suburb": "GOODNA",
        "Postcode": "4300",
        "State": "QLD",
        "Full Address": " IPSWICH MWY GOODNA 4300 QLD "
      },
      "geometry": {
        "coordinates": [
          152.895233,
          -27.605997
        ],
        "type": "Point"
      },
      "id": "2c3a7bcce599ebe8b258fbe8956a4a7b"
    },
    {
      "type": "Feature",
      "properties": {
        "Street Number": "269",
        "Street Name": "Cainbable Creek",
        "Street Type": "RD",
        "Suburb": "NINDOOINBAH",
        "Postcode": "4285",
        "State": "QLD",
        "Full Address": "269 Cainbable Creek RD NINDOOINBAH 4285 QLD "
      },
      "geometry": {
        "coordinates": [
          153.074387,
          -28.093691
        ],
        "type": "Point"
      },
      "id": "2c5f072f334302e5c950204a3897c1e8"
    },
    {
      "type": "Feature",
      "properties": {
        "Street Number": "152",
        "Street Name": "Buckland",
        "Street Type": "RD",
        "Suburb": "NUNDAH",
        "Postcode": "4012",
        "State": "QLD",
        "Full Address": "152 Buckland RD NUNDAH 4012 QLD "
      },
      "geometry": {
        "coordinates": [
          153.057371,
          -27.403326
        ],
        "type": "Point"
      },
      "id": "2cd2b779f57aaf9cec3844a0574d9f61"
    },
    {
      "type": "Feature",
      "properties": {
        "Street Number": "3",
        "Street Name": "Main",
        "Street Type": "ST",
        "Suburb": "VARSITY LAKES",
        "Postcode": "4227",
        "State": "QLD",
        "Full Address": "3 Main ST VARSITY LAKES 4227 QLD "
      },
      "geometry": {
        "coordinates": [
          153.408281,
          -28.078697
        ],
        "type": "Point"
      },
      "id": "2cff49376129afc7a579d7802d9ee2ff"
    },
    {
      "type": "Feature",
      "properties": {
        "Street Number": "",
        "Street Name": "CRUICKSHANKS",
        "Street Type": "RD",
        "Suburb": "HAWKINS CREEK",
        "Postcode": "4850",
        "State": "QLD",
        "Full Address": " CRUICKSHANKS RD HAWKINS CREEK 4850 QLD "
      },
      "geometry": {
        "coordinates": [
          146.112714,
          -18.618603
        ],
        "type": "Point"
      },
      "id": "2d1549710734b32c691eac2e230d07e3"
    },
    {
      "type": "Feature",
      "properties": {
        "Street Number": "",
        "Street Name": "Melbourne & Hope",
        "Street Type": "ST",
        "Suburb": "SOUTH BRISBANE",
        "Postcode": "4101",
        "State": "QLD",
        "Full Address": " Melbourne & Hope ST SOUTH BRISBANE 4101 QLD "
      },
      "geometry": {
        "coordinates": [
          153.015869,
          -27.471943
        ],
        "type": "Point"
      },
      "id": "2d429fece7077fc30d4a69ca22403ee0"
    },
    {
      "type": "Feature",
      "properties": {
        "Street Number": "2960",
        "Street Name": "Old Cleveland",
        "Street Type": "RD",
        "Suburb": "CHANDLER",
        "Postcode": "4155",
        "State": "QLD",
        "Full Address": "2960 Old Cleveland RD CHANDLER 4155 QLD "
      },
      "geometry": {
        "coordinates": [
          153.183109,
          -27.515989
        ],
        "type": "Point"
      },
      "id": "2d7f7b9d8f2a84ed69d1df7690f35222"
    },
    {
      "type": "Feature",
      "properties": {
        "Street Number": "",
        "Street Name": "Canberra & Lytton",
        "Street Type": "RD",
        "Suburb": "HEMMANT",
        "Postcode": "4174",
        "State": "QLD",
        "Full Address": " Canberra & Lytton RD HEMMANT 4174 QLD "
      },
      "geometry": {
        "coordinates": [
          153.12982,
          -27.444264
        ],
        "type": "Point"
      },
      "id": "2d9d41e473469ab85275a5da188e9122"
    },
    {
      "type": "Feature",
      "properties": {
        "Street Number": "",
        "Street Name": "Burrows & Hollywell",
        "Street Type": "RD",
        "Suburb": "BIGGERA WATERS",
        "Postcode": "4216",
        "State": "QLD",
        "Full Address": " Burrows & Hollywell RD BIGGERA WATERS 4216 QLD "
      },
      "geometry": {
        "coordinates": [
          153.39948,
          -27.932228
        ],
        "type": "Point"
      },
      "id": "2daa0d58d8ba5120e3908d85a8b8e079"
    },
    {
      "type": "Feature",
      "properties": {
        "Street Number": "",
        "Street Name": "Teviot & Greenbank",
        "Street Type": "RD",
        "Suburb": "GREENBANK",
        "Postcode": "4124",
        "State": "QLD",
        "Full Address": " Teviot & Greenbank RD GREENBANK 4124 QLD "
      },
      "geometry": {
        "coordinates": [
          152.985353,
          -27.743737
        ],
        "type": "Point"
      },
      "id": "2db2cc09510b4097e8d940717fbb14fb"
    },
    {
      "type": "Feature",
      "properties": {
        "Street Number": "10",
        "Street Name": "PALMERSTON",
        "Street Type": "HWY",
        "Suburb": "MILLAA MILLAA",
        "Postcode": "4886",
        "State": "QLD",
        "Full Address": "10 PALMERSTON HWY MILLAA MILLAA 4886 QLD "
      },
      "geometry": {
        "coordinates": [
          145.991246,
          -17.514923
        ],
        "type": "Point"
      },
      "id": "2dd019f17a3f41e4d5390c782d87418a"
    },
    {
      "type": "Feature",
      "properties": {
        "Street Number": "",
        "Street Name": "Dixon & Claymore",
        "Street Type": "RD",
        "Suburb": "SIPPY DOWNS",
        "Postcode": "4556",
        "State": "QLD",
        "Full Address": " Dixon & Claymore RD SIPPY DOWNS 4556 QLD "
      },
      "geometry": {
        "coordinates": [
          153.072372,
          -26.713757
        ],
        "type": "Point"
      },
      "id": "2e26a13fc37205b584522870a9c59969"
    },
    {
      "type": "Feature",
      "properties": {
        "Street Number": "44",
        "Street Name": "HOGG",
        "Street Type": "ST",
        "Suburb": "ROCKVILLE",
        "Postcode": "4350",
        "State": "QLD",
        "Full Address": "44 HOGG ST ROCKVILLE 4350 QLD "
      },
      "geometry": {
        "coordinates": [
          151.941529,
          -27.529321
        ],
        "type": "Point"
      },
      "id": "2e6bb7d932a47f3ef3ac9fc2f6ad5a94"
    },
    {
      "type": "Feature",
      "properties": {
        "Street Number": "",
        "Street Name": "Pacific",
        "Street Type": "MWY",
        "Suburb": "ROCHEDALE",
        "Postcode": "4123",
        "State": "QLD",
        "Full Address": " Pacific MWY ROCHEDALE 4123 QLD "
      },
      "geometry": {
        "coordinates": [
          153.111378,
          -27.59381
        ],
        "type": "Point"
      },
      "id": "2ee034e68c9d0df0ffc45bb09090aeb8"
    },
    {
      "type": "Feature",
      "properties": {
        "Street Number": "1",
        "Street Name": "New England",
        "Street Type": "HWY",
        "Suburb": "CROWS NEST",
        "Postcode": "4355",
        "State": "QLD",
        "Full Address": "1 New England HWY CROWS NEST 4355 QLD "
      },
      "geometry": {
        "coordinates": [
          152.049174,
          -27.258662
        ],
        "type": "Point"
      },
      "id": "2eebf87ff1789fab3d56cf481a86f5bc"
    },
    {
      "type": "Feature",
      "properties": {
        "Street Number": "",
        "Street Name": "Edward & Mary",
        "Street Type": "ST",
        "Suburb": "BRISBANE CITY",
        "Postcode": "4000",
        "State": "QLD",
        "Full Address": " Edward & Mary ST BRISBANE CITY 4000 QLD "
      },
      "geometry": {
        "coordinates": [
          153.029167,
          -27.470617
        ],
        "type": "Point"
      },
      "id": "2f68927c7a3639957e203396886890d5"
    },
    {
      "type": "Feature",
      "properties": {
        "Street Number": "51",
        "Street Name": "BUCKLAND",
        "Street Type": "ST",
        "Suburb": "HARRISTOWN",
        "Postcode": "4350",
        "State": "QLD",
        "Full Address": "51 BUCKLAND ST HARRISTOWN 4350 QLD "
      },
      "geometry": {
        "coordinates": [
          151.93005,
          -27.577266
        ],
        "type": "Point"
      },
      "id": "2f9a0fb9c7a635feb6e3aadba8fa77fe"
    },
    {
      "type": "Feature",
      "properties": {
        "Street Number": "292",
        "Street Name": "Valdora",
        "Street Type": "RD",
        "Suburb": "VALDORA",
        "Postcode": "4561",
        "State": "QLD",
        "Full Address": "292 Valdora RD VALDORA 4561 QLD "
      },
      "geometry": {
        "coordinates": [
          153.004582,
          -26.548462
        ],
        "type": "Point"
      },
      "id": "2fa0567fb39061a74cfcbb6344ced5cd"
    },
    {
      "type": "Feature",
      "properties": {
        "Street Number": "",
        "Street Name": "LOGAN & MOUNT GRAVATT CAPALABA",
        "Street Type": "RD",
        "Suburb": "UPPER MOUNT GRAVATT",
        "Postcode": "4122",
        "State": "QLD",
        "Full Address": " LOGAN & MOUNT GRAVATT CAPALABA RD UPPER MOUNT GRAVATT 4122 QLD "
      },
      "geometry": {
        "coordinates": [
          153.081064,
          -27.559911
        ],
        "type": "Point"
      },
      "id": "2fae5117be3f54d4ea5fbb5147c9d75b"
    },
    {
      "type": "Feature",
      "properties": {
        "Street Number": "274",
        "Street Name": "Brisbane",
        "Street Type": "ST",
        "Suburb": "WEST IPSWICH",
        "Postcode": "4305",
        "State": "QLD",
        "Full Address": "274 Brisbane ST WEST IPSWICH 4305 QLD "
      },
      "geometry": {
        "coordinates": [
          152.748899,
          -27.620407
        ],
        "type": "Point"
      },
      "id": "2ffbbc8fe94f5a51381ca12dbe7d15a2"
    },
    {
      "type": "Feature",
      "properties": {
        "Street Number": "",
        "Street Name": "Veales & Joanne",
        "Street Type": "ST",
        "Suburb": "DEERAGUN",
        "Postcode": "4818",
        "State": "QLD",
        "Full Address": " Veales & Joanne ST DEERAGUN 4818 QLD "
      },
      "geometry": {
        "coordinates": [
          146.652819,
          -19.245853
        ],
        "type": "Point"
      },
      "id": "3002cc59ac3565962c5a24bb65d5b584"
    },
    {
      "type": "Feature",
      "properties": {
        "Street Number": "",
        "Street Name": "Mirambeena & Creek",
        "Street Type": "ST",
        "Suburb": "PIMPAMA",
        "Postcode": "4209",
        "State": "QLD",
        "Full Address": " Mirambeena & Creek ST PIMPAMA 4209 QLD "
      },
      "geometry": {
        "coordinates": [
          153.277059,
          -27.799892
        ],
        "type": "Point"
      },
      "id": "301c6b75ffb1208de477024c2e4c4e39"
    },
    {
      "type": "Feature",
      "properties": {
        "Street Number": "",
        "Street Name": "CAPTAIN COOK & TRINITY BEACH",
        "Street Type": "RD",
        "Suburb": "TRINITY BEACH",
        "Postcode": "4879",
        "State": "QLD",
        "Full Address": " CAPTAIN COOK & TRINITY BEACH RD TRINITY BEACH 4879 QLD "
      },
      "geometry": {
        "coordinates": [
          145.688912,
          -16.788485
        ],
        "type": "Point"
      },
      "id": "301cbfc4e98f19e86526532878323171"
    },
    {
      "type": "Feature",
      "properties": {
        "Street Number": "",
        "Street Name": "HALLORAN & SHERRIFF",
        "Street Type": "ST",
        "Suburb": "HERMIT PARK",
        "Postcode": "4812",
        "State": "QLD",
        "Full Address": " HALLORAN & SHERRIFF ST HERMIT PARK 4812 QLD "
      },
      "geometry": {
        "coordinates": [
          146.799675,
          -19.291456
        ],
        "type": "Point"
      },